code,,level,category,state,ppd,address,postcode,city,longitude,latitude
ABA0001,SEKOLAH KEBANGSAAN TOH TANDEWA SAKTI,Rendah,SK,PERAK,PPD BATANG PADANG,JALAN KELAB,35000,TAPAH,101.255932,4.196633
ABA0002,SEKOLAH KEBANGSAAN PENDITA ZA'BA,Rendah,SK,PERAK,PPD BATANG PADANG,JALAN TAPAH ROAD,35400,TAPAH ROAD,101.200617,4.178276
ABA0003,SEKOLAH KEBANGSAAN BANIR,Rendah,SK,PERAK,PPD BATANG PADANG,BANIR,35400,TAPAH ROAD,101.181893,4.204361
ABA0004,SEKOLAH KEBANGSAAN TEMOH,Rendah,SK,PERAK,PPD BATANG PADANG,KAMPUNG TEMOH STESEN,35350,TEMOH,101.172819,4.235841
ABA0005,SEKOLAH KEBANGSAAN CHENDERIANG,Rendah,SK,PERAK,PPD BATANG PADANG,JALAN CHENDERIANG,35300,CHENDERIANG,101.240556,4.267980
ABA0006,SEKOLAH KEBANGSAAN BIDOR,Rendah,SK,PERAK,PPD BATANG PADANG,JALAN SUNGKAI,35500,BIDOR,101.288553,4.107830
ABA0007,SEKOLAH KEBANGSAAN KAMPONG POH,Rendah,SK,PERAK,PPD BATANG PADANG,KAMPONG POH,35500,BIDOR,101.333928,4.087714
ABA0008,SEKOLAH KEBANGSAAN BATU TIGA,Rendah,SK,PERAK,PPD BATANG PADANG,KAMPUNG BATU TIGA,35350,TEMOH,101.227594,4.225045
ABA0009,SEKOLAH KEBANGSAAN BATU MELINTANG,Rendah,SK,PERAK,PPD BATANG PADANG,KAMPUNG BATU MELINTANG,35000,TAPAH,101.284999,4.199232
ABA0010,SEKOLAH KEBANGSAAN HAJI HASAN,Rendah,SK,PERAK,PPD BATANG PADANG,CHANGKAT PETAI,35400,TAPAH ROAD,101.151000,4.126494
ABA0011,SEKOLAH KEBANGSAAN SRI KINJANG,Rendah,SK,PERAK,PPD BATANG PADANG,CHENDERIANG,35300,CHENDERIANG,101.246669,4.298925
ABA0012,SEKOLAH KEBANGSAAN KAMPONG PAHANG,Rendah,SK,PERAK,PPD BATANG PADANG,JALAN PAHANG,35000,TAPAH,101.290635,4.224792
ABA0013,SEKOLAH KEBANGSAAN BATU TUJUH,Rendah,SK,PERAK,PPD BATANG PADANG,JALAN PAHANG,35000,TAPAH,101.318631,4.250268
ABA0014,SEKOLAH KEBANGSAAN JERAM MENGKUANG,Rendah,SK,PERAK,PPD BATANG PADANG,"BATU 5, JERAM MENGKUANG",35500,BIDOR,101.241413,4.067268
ABA0015,SEKOLAH KEBANGSAAN SUNGAI LESONG,Rendah,SK,PERAK,PPD BATANG PADANG,KG SUNGAI LESONG,31950,MAMBANG DI AWAN,101.145479,4.231541
ABA0016,SEKOLAH KEBANGSAAN AYER KUNING,Rendah,SK,PERAK,PPD BATANG PADANG,AIR KUNING KAMPAR,31920,KAMPAR,101.143561,4.194635
ABA0017,SEKOLAH KEBANGSAAN BATU MASJID,Rendah,SK,PERAK,PPD BATANG PADANG,KAMPONG BATU MASJID,35350,TEMOH,101.200528,4.226201
ABA0018,SEKOLAH KEBANGSAAN SUNGKAI,Rendah,SK,PERAK,PPD BATANG PADANG,SUNGKAI,35600,SUNGKAI,101.309711,3.995430
ABA0019,SEKOLAH KEBANGSAAN PERLOK,Rendah,SK,PERAK,PPD BATANG PADANG,JALAN MENDERANG,35600,SUNGKAI,101.342328,4.010142
ABA0020,SEKOLAH KEBANGSAAN BIKAM,Rendah,SK,PERAK,PPD BATANG PADANG,KAMPUNG BIKAM,35600,SUNGKAI,101.297428,4.044575
ABA0024,SEKOLAH KEBANGSAAN CHANGKAT SULAIMAN,Rendah,SK,PERAK,PPD BATANG PADANG,KG.CHANGKAT SULAIMAN,35600,SUNGKAI,101.295589,3.971203
ABA0031,SEKOLAH KEBANGSAAN FELDA SUNGAI KELAH,Rendah,SK,PERAK,PPD BATANG PADANG,FELDA SUNGAI KELAH,35600,SUNGKAI,101.369826,3.989146
ABA0034,SEKOLAH KEBANGSAAN BATU 14,Rendah,SK,PERAK,PPD BATANG PADANG,JALAN PAHANG,35000,TAPAH,101.327080,4.322859
ABA0035,SEKOLAH KEBANGSAAN BESOUT 3,Rendah,SK,PERAK,PPD BATANG PADANG,FELDA GUNUNG BESOUT 3,35600,SUNGKAI,101.300399,3.843797
ABA0110,SEKOLAH KEBANGSAAN TROLAK UTARA,Rendah,SK,PERAK,PPD BATANG PADANG,FELDA TROLAK UTARA,35600,SUNGKAI,101.358578,3.950507
ABA0118,SEKOLAH KEBANGSAAN TROLAK SELATAN,Rendah,SK,PERAK,PPD BATANG PADANG,FELDA TROLAK SELATAN,35600,SUNGKAI,101.386788,3.919545
ABA0120,SEKOLAH KEBANGSAAN SERI BESOUT,Rendah,SK,PERAK,PPD BATANG PADANG,FELDA GUNUNG BESOUT 01,35600,SUNGKAI,101.286544,3.847763
ABA0125,SEKOLAH KEBANGSAAN POS GEDONG,Rendah,SK,PERAK,PPD BATANG PADANG,PETI SURAT 20,35500,BIDOR,101.376862,4.170615
ABA0126,SEKOLAH KEBANGSAAN KAMPUNG SENTA,Rendah,SK,PERAK,PPD BATANG PADANG,PETI SURAT 20,35500,BIDOR,101.330783,4.153609
ABA0127,SEKOLAH KEBANGSAAN POS MUSUH LZ,Rendah,SK,PERAK,PPD BATANG PADANG,PETI SURAT 51,35000,TAPAH,101.335809,4.262299
ABA0128,SEKOLAH KEBANGSAAN JERNANG,Rendah,SK,PERAK,PPD BATANG PADANG,"P/SURAT 14, PEJABAT POS SUNGKAI",35600,SUNGKAI,101.419363,4.051292
ABA0129,SEKOLAH KEBANGSAAN TAPAH,Rendah,SK,PERAK,PPD BATANG PADANG,JALAN BIDOR LAMA,35000,TAPAH,101.267980,4.181660
ABA0130,SEKOLAH KEBANGSAAN BIDOR 2,Rendah,SK,PERAK,PPD BATANG PADANG,JALAN TELUK INTAN,35500,BIDOR,101.276955,4.117048
ABA1001,SEKOLAH KEBANGSAAN DENDANG,Rendah,SK,PERAK,PPD MANJUNG,KAMPUNG DENDANG,32700,BERUAS,100.815458,4.502662
ABA1002,SEKOLAH KEBANGSAAN BERUAS,Rendah,SK,PERAK,PPD MANJUNG,JALAN PARIT,32700,BERUAS,100.786063,4.498995
ABA1003,SEKOLAH KEBANGSAAN KAMPUNG KOTA,Rendah,SK,PERAK,PPD MANJUNG,JALAN SITIAWAN,32700,BERUAS,100.784488,4.479139
ABA1004,SEKOLAH KEBANGSAAN GELONG GAJAH,Rendah,SK,PERAK,PPD MANJUNG,KAMPUNG  KEDAH,32700,BERUAS,100.778416,4.411289
ABA1005,SEKOLAH KEBANGSAAN CHANGKAT CHERMIN,Rendah,SK,PERAK,PPD MANJUNG,CHANGKAT CHERMIN,32400,AYER TAWAR,100.817463,4.348482
ABA1006,SEKOLAH KEBANGSAAN AYER TAWAR,Rendah,SK,PERAK,PPD MANJUNG,JALAN AYER TAWAR PANTAI REMIS,32400,AYER TAWAR,100.773077,4.322562
ABA1007,SEKOLAH KEBANGSAAN PANCHOR,Rendah,SK,PERAK,PPD MANJUNG,JALAN PANTAI REMIS TAIPING,34900,PANTAI REMIS,100.650830,4.519050
ABA1008,SEKOLAH KEBANGSAAN PENGKALAN BAHARU,Rendah,SK,PERAK,PPD MANJUNG,PENGKALAN BAHARU,34900,PANTAI REMIS,100.634395,4.478546
ABA1009,SEKOLAH KEBANGSAAN SUNGAI BATU,Rendah,SK,PERAK,PPD MANJUNG,KAMPUNG SUNGAI BATU,34900,PANTAI REMIS,100.625400,4.434293
ABA1010,SEKOLAH KEBANGSAAN LADANG HUNTLY,Rendah,SK,PERAK,PPD MANJUNG,LADANG HUNTLY,32500,CHANGKAT KERUING,100.694622,4.415320
ABA1011,SEKOLAH KEBANGSAAN SEGARI,Rendah,SK,PERAK,PPD MANJUNG,JALAN PANTAI REMIS DAMAR LAUT,32200,LUMUT,100.625364,4.350093
ABA1012,SEKOLAH KEBANGSAAN NAKHODA MUHAMMAD TAIB,Rendah,SK,PERAK,PPD MANJUNG,BATU 3 SEGARI,32200,LUMUT,100.624957,4.278504
ABA1013,SEKOLAH KEBANGSAAN SUNGAI RAMAI,Rendah,SK,PERAK,PPD MANJUNG,KG. SUNGAI RAMAI,32400,AYER TAWAR,100.744207,4.298834
ABA1014,SEKOLAH KEBANGSAAN SUNGAI WANGI,Rendah,SK,PERAK,PPD MANJUNG,JALAN BRUAS,32400,AYER TAWAR,100.727487,4.260680
ABA1015,SEKOLAH KEBANGSAAN SERI SELAMAT,Rendah,SK,PERAK,PPD MANJUNG,LORONG SELAMAT,32000,SITIAWAN,100.700283,4.213717
ABA1016,SEKOLAH KEBANGSAAN SITIAWAN,Rendah,SK,PERAK,PPD MANJUNG,KAMPONG SITIAWAN,32000,SITIAWAN,100.689955,4.237377
ABA1017,SEKOLAH KEBANGSAAN LEKIR,Rendah,SK,PERAK,PPD MANJUNG,BATU 8,32020,SITIAWAN,100.721142,4.147191
ABA1018,SEKOLAH KEBANGSAAN MUHAMMAD SAMAN,Rendah,SK,PERAK,PPD MANJUNG,PASIR PANJANG LAUT,32040,SERI MANJUNG,100.689698,4.169197
ABA1019,SEKOLAH KEBANGSAAN BATU SEPULUH,Rendah,SK,PERAK,PPD MANJUNG,LEKIR,32020,SITIAWAN,100.717833,4.153824
ABA1020,SEKOLAH KEBANGSAAN SUNGAI TIRAM,Rendah,SK,PERAK,PPD MANJUNG,SUNGAI TIRAM,32020,SITIAWAN,100.766020,4.107630
ABA1021,SEKOLAH KEBANGSAAN DATO' ISHAK,Rendah,SK,PERAK,PPD MANJUNG,"KAMPUNG PADANG TEMBAK, TELUK MUROK",32200,LUMUT,100.620306,4.208738
ABA1022,SEKOLAH KEBANGSAAN LUMUT,Rendah,SK,PERAK,PPD MANJUNG,JLN ISKANDAR SHAH,32200,LUMUT,100.627343,4.230752
ABA1023,SEKOLAH KEBANGSAAN SERI PANGKOR,Rendah,SK,PERAK,PPD MANJUNG,JALAN PASIR BOGAK,32300,PANGKOR,100.572868,4.211426
ABA1024,SEKOLAH KEBANGSAAN TELAGA NENAS,Rendah,SK,PERAK,PPD MANJUNG,KG TELAGA NANAS,32400,AYER TAWAR,100.666293,4.324030
ABA1025,SEKOLAH KEBANGSAAN KAMPUNG BAHARU,Rendah,SK,PERAK,PPD MANJUNG,KAMPONG BAHARU (L),32400,AYER TAWAR,100.670764,4.293653
ABA1026,SEKOLAH KEBANGSAAN KAYAN,Rendah,SK,PERAK,PPD MANJUNG,JALAN TELUK INTAN - SITIAWAN,32030,SITIAWAN,100.797930,4.045690
ABA1027,SEKOLAH KEBANGSAAN PANGKALAN TLDM,Rendah,SK,PERAK,PPD MANJUNG,PANGKALAN TLDM,32100,LUMUT,100.617393,4.214277
ABA1028,SEKOLAH KEBANGSAAN SERI MANJUNG,Rendah,SK,PERAK,PPD MANJUNG,BANDAR BARU SERI MANJUNG,32040,SERI MANJUNG,100.662883,4.188247
ABA1029,SEKOLAH KEBANGSAAN PANTAI REMIS,Rendah,SK,PERAK,PPD MANJUNG,JALAN RUMAH MURAH,34900,PANTAI REMIS,100.631694,4.450635
ABA1030,SEKOLAH KEBANGSAAN GUGUSAN LEKIR,Rendah,SK,PERAK,PPD MANJUNG,D/A FELCRA GUGUSAN LEKIR,32000,SITIAWAN,100.756213,4.196446
ABA1031,SEKOLAH KEBANGSAAN PANGKALAN TLDM II,Rendah,SK,PERAK,PPD MANJUNG,PANGKALAN TLDM,32100,LUMUT,100.619134,4.215815
ABA1032,SEKOLAH KEBANGSAAN KPG. DATO' SERI KAMARUDDIN,Rendah,SK,PERAK,PPD MANJUNG,KPG DATO' SERI KAMARUDDIN,32040,SERI MANJUNG,100.649916,4.182197
ABA1033,SEKOLAH KEBANGSAAN SERI SITIAWAN,Rendah,SK,PERAK,PPD MANJUNG,MANJUNG RAYA,32040,SERI MANJUNG,100.657046,4.208274
ABA1034,SEKOLAH KEBANGSAAN SERI BAYU,Rendah,SK,PERAK,PPD MANJUNG,PETI SURAT 26 KOMPLEKS SEKOLAH WAWASAN MANJUNG,32040,SERI MANJUNG,100.652998,4.199762
ABA1035,SEKOLAH KEBANGSAAN SERI SAMUDERA,Rendah,SK,PERAK,PPD MANJUNG,MANJUNG RAYA,32040,SERI MANJUNG,100.661125,4.208151
ABA2001,SEKOLAH KEBANGSAAN SUNGAI RAYA,Rendah,SK,PERAK,PPD KINTA UTARA,"JLN. RAJA DR. NAZRIN SHAH, KAMPONG KEPAYANG",31300,KG. KEPAYANG,101.133584,4.519881
ABA2002,SEKOLAH KEBANGSAAN SUNGAI RAPAT,Rendah,SK,PERAK,PPD KINTA UTARA,JALAN RAJA ABDULLAH,31350,IPOH,101.108199,4.573474
ABA2003,SEKOLAH KEBANGSAAN SUNGAI ROKAM,Rendah,SK,PERAK,PPD KINTA UTARA,JALAN KENANGA,31350,IPOH,101.114984,4.577717
ABA2004,SEKOLAH KEBANGSAAN TAMBUN,Rendah,SK,PERAK,PPD KINTA UTARA,JALAN AMPANG,31400,IPOH,101.140922,4.608050
ABA2005,SEKOLAH KEBANGSAAN TANJONG RAMBUTAN,Rendah,SK,PERAK,PPD KINTA UTARA,JALAN STESEN,31250,TANJONG RAMBUTAN,101.155619,4.666796
ABA2006,SEKOLAH KEBANGSAAN TASEK,Rendah,SK,PERAK,PPD KINTA UTARA,JALAN SULTAN AZLAN SHAH UTARA,31400,IPOH,101.114302,4.638456
ABA2007,SEKOLAH KEBANGSAAN CHEPOR,Rendah,SK,PERAK,PPD KINTA UTARA,JALAN JELAPANG,31200,CHEMOR,101.086318,4.683860
ABA2008,SEKOLAH KEBANGSAAN HAJI MAHMUD,Rendah,SK,PERAK,PPD KINTA UTARA,JALAN SEKOLAH,31200,CHEMOR,101.120205,4.720518
ABA2009,SEKOLAH KEBANGSAAN SYED IDRUS,Rendah,SK,PERAK,PPD KINTA UTARA,KUANG,31200,CHEMOR,101.140567,4.769493
ABA2010,SEKOLAH KEBANGSAAN DATO' PANGLIMA KINTA,Rendah,SK,PERAK,PPD KINTA UTARA,JALAN TUN PERAK,30200,IPOH,101.069669,4.591497
ABA2011,SEKOLAH KEBANGSAAN JALAN PANGLIMA BUKIT GANTANG,Rendah,SK,PERAK,PPD KINTA UTARA,JALAN PANGLIMA BUKIT GANTANG WAHAB,30000,IPOH,101.079627,4.607156
ABA2012,SEKOLAH KEBANGSAAN SERI KEPAYANG,Rendah,SK,PERAK,PPD KINTA UTARA,FAIR PARK,31400,IPOH,101.096464,4.606496
ABA2014,SEKOLAH KEBANGSAAN KAMPUNG PASIR PUTEH,Rendah,SK,PERAK,PPD KINTA UTARA,TAMAN SHATIN,31650,IPOH,101.074761,4.562290
ABA2015,SEKOLAH KEBANGSAAN KUALA PARI,Rendah,SK,PERAK,PPD KINTA UTARA,JALAN TOH PUAN RAHMAH,31450,MENGLEMBU,101.067813,4.578535
ABA2016,SEKOLAH KEBANGSAAN PENGKALAN PEGOH,Rendah,SK,PERAK,PPD KINTA UTARA,"JALAN SIMPANG PULAI, KG. PENGKALAN PEGOH",31500,LAHAT,101.069631,4.531342
ABA2017,SEKOLAH KEBANGSAAN PENGKALAN BAHARU,Rendah,SK,PERAK,PPD KINTA SELATAN,"JALAN GOPENG, KG. KEPAYANG",31300,KG. KEPAYANG,101.119000,4.492806
ABA2030,SEKOLAH KEBANGSAAN TOH INDERA WANGSA AHMAD,Rendah,SK,PERAK,PPD KINTA SELATAN,JALAN SULAIMAN,31000,BATU GAJAH,101.040258,4.471507
ABA2031,SEKOLAH KEBANGSAAN SIPUTEH,Rendah,SK,PERAK,PPD KINTA SELATAN,SIPUTEH,31560,SIPUTEH,100.997639,4.467954
ABA2032,SEKOLAH KEBANGSAAN TRONOH,Rendah,SK,PERAK,PPD KINTA SELATAN,JALAN BOTA LAMA,31750,TRONOH,100.986224,4.418751
ABA2033,SEKOLAH KEBANGSAAN KG. SERI RAHMAT,Rendah,SK,PERAK,PPD KINTA SELATAN,JALAN CHANGKAT LARANG,31500,LAHAT,101.077179,4.502070
ABA2034,SEKOLAH KEBANGSAAN TANJUNG TUALANG,Rendah,SK,PERAK,PPD KINTA SELATAN,BATU 7,31000,BATU GAJAH,101.061239,4.368111
ABA2035,SEKOLAH KEBANGSAAN AYER PAPAN,Rendah,SK,PERAK,PPD KINTA SELATAN,KAMPUNG AYER PAPAN,31800,TANJONG TUALANG,101.053742,4.311469
ABA2036,SEKOLAH KEBANGSAAN CHANGKAT TIN,Rendah,SK,PERAK,PPD KINTA SELATAN,CHANGKAT TIN,31800,TANJUNG TUALANG,101.052636,4.278091
ABA2038,SEKOLAH KEBANGSAAN BAKAP,Rendah,SK,PERAK,PPD KINTA SELATAN,JALAN TG. TUALANG,31000,BATU GAJAH,101.044991,4.444662
ABA2039,SEKOLAH KEBANGSAAN PASUKAN POLIS HUTAN,Rendah,SK,PERAK,PPD KINTA UTARA,JALAN PASUKAN POLIS HUTAN,31150,ULU KINTA,101.171271,4.655241
ABA2040,SEKOLAH KEBANGSAAN AYER DENAK,Rendah,SK,PERAK,PPD KINTA SELATAN,TRONOH,31750,TRONOH,101.013205,4.350163
ABA2041,SEKOLAH KEBANGSAAN MANJOI (SATU),Rendah,SK,PERAK,PPD KINTA UTARA,"JALAN  MASJID, KG. MANJOI",30020,IPOH,101.071705,4.618595
ABA2042,SEKOLAH KEBANGSAAN GURU KALGIDHAR,Rendah,SK,PERAK,PPD KINTA UTARA,"JALAN GUNTONG, BUNTONG",30100,IPOH,101.064374,4.592886
ABA2043,SEKOLAH KEBANGSAAN MANJOI (DUA),Rendah,SK,PERAK,PPD KINTA UTARA,JALAN MASJID KG. MANJOI,30020,IPOH,101.072073,4.618859
ABA2044,SEKOLAH KEBANGSAAN PENDIDIKAN KHAS IPOH,Rendah,SK KHAS,PERAK,PPD KINTA UTARA,"JALAN KUALA KANGSAR, ANJUNG TAWAS",31200,CHEMOR,101.106157,4.655195
ABA2045,SEKOLAH KEBANGSAAN JELAPANG,Rendah,SK,PERAK,PPD KINTA UTARA,TAMAN MERU,30020,IPOH,101.068498,4.650460
ABA2046,SEKOLAH KEBANGSAAN DATO' AHMAD SAID TAMBAHAN,Rendah,SK,PERAK,PPD KINTA UTARA,LEBUH RAJAWALI,30020,IPOH,101.067524,4.627209
ABA2047,SEKOLAH KEBANGSAAN POS RAYA,Rendah,SK,PERAK,PPD KINTA UTARA,JALAN CAMERON HIGHLANDS,31300,KG KEPAYANG,101.254020,4.574771
ABA2049,SEKOLAH KEBANGSAAN SERI TANJUNG,Rendah,SK,PERAK,PPD KINTA UTARA,TANJUNG RAMBUTAN,31250,TANJONG RAMBUTAN,101.194428,4.693184
ABA2050,SEKOLAH KEBANGSAAN SERI AMPANG,Rendah,SK,PERAK,PPD KINTA UTARA,JLN RAJA MUSA MAHADI,31350,IPOH,101.126254,4.584000
ABA2051,SEKOLAH KEBANGSAAN JALAN PEGOH,Rendah,SK,PERAK,PPD KINTA UTARA,"LRG. PEGOH 4, TMN. PENGKALAN JAYA",31650,IPOH,101.080888,4.554196
ABA2052,SEKOLAH KEBANGSAAN SERI KELEBANG,Rendah,SK,PERAK,PPD KINTA UTARA,KG SERI KELEBANG,31200,CHEMOR,101.096706,4.656919
ABA2053,SEKOLAH KEBANGSAAN PERPADUAN,Rendah,SK,PERAK,PPD KINTA UTARA,TAMAN PERPADUAN,31150,ULU KINTA,101.150659,4.635484
ABA2055,SEKOLAH KEBANGSAAN RAJA CHULAN,Rendah,SK,PERAK,PPD KINTA UTARA,DESA CEMPAKA,31400,IPOH,101.129539,4.590531
ABA2056,SEKOLAH KEBANGSAAN TAMAN BERSATU,Rendah,SK,PERAK,PPD KINTA UTARA,SIMPANG PULAI,31300,KG KEPAYANG,101.121254,4.535151
ABA2057,SEKOLAH KEBANGSAAN PENGKALAN,Rendah,SK,PERAK,PPD KINTA UTARA,TAMAN PINJI MEWAH,31500,LAHAT,101.085825,4.531900
ABA2058,SEKOLAH KEBANGSAAN JATI,Rendah,SK,PERAK,PPD KINTA UTARA,"JALAN TAMAN JATI 1, TAMAN JATI, JELAPANG",30020,IPOH,101.074223,4.656033
ABA2059,SEKOLAH KEBANGSAAN BANDAR BARU PUTERA,Rendah,SK,PERAK,PPD KINTA UTARA,JALAN BERCHAM,31400,IPOH,101.144648,4.662933
ABA2060,SEKOLAH KEBANGSAAN SILIBIN,Rendah,SK,PERAK,PPD KINTA UTARA,"PERSIARAN JELAPANG 13,TAMAN SILIBIN",30100,IPOH,101.051196,4.618210
ABA2061,SEKOLAH KEBANGSAAN TASEK DERMAWAN,Rendah,SK,PERAK,PPD KINTA UTARA,"KAMPUNG TERSUSUN TASEK, BERCHAM",31400,IPOH,101.119323,4.639548
ABA2062,SEKOLAH KEBANGSAAN SIMPANG PULAI,Rendah,SK,PERAK,PPD KINTA UTARA,JALAN BESAR KG MERAWAN INDAH,31300,KG KEPAYANG,101.119495,4.519763
ABA2063,SEKOLAH KEBANGSAAN RAPAT JAYA,Rendah,SK,PERAK,PPD KINTA UTARA,KG. RAPAT JAYA TAMBAHAN,31350,IPOH,101.090724,4.550161
ABA2064,SEKOLAH KEBANGSAAN PINJI,Rendah,SK,PERAK,PPD KINTA UTARA,PERSIARAN BUNGA RAYA,31650,IPOH,101.081198,4.565476
ABA2065,SEKOLAH KEBANGSAAN JELAPANG JAYA,Rendah,SK,PERAK,PPD KINTA UTARA,"LALUAN KERANJI 5, KG DATO' AHMAD SAID TAMBAHAN 3",30020,IPOH,101.075136,4.634638
ABA2066,SEKOLAH KEBANGSAAN BUNTONG,Rendah,SK,PERAK,PPD KINTA UTARA,PERSIARAN DESA RISHAH (S) 1/1B,30100,IPOH,101.046632,4.586980
ABA2067,SEKOLAH KEBANGSAAN SERI JAYA,Rendah,SK,PERAK,PPD KINTA SELATAN,"KAMPONG SERI JAYA, JALAN CHANGKAT LARANG",31000,BATU GAJAH,101.064665,4.478902
ABA2068,SEKOLAH KEBANGSAAN RAPAT SETIA,Rendah,SK,PERAK,PPD KINTA UTARA,JALAN TENAGA,31350,IPOH,101.125696,4.567579
ABA2069,SEKOLAH KEBANGSAAN WIRA JAYA,Rendah,SK,PERAK,PPD KINTA UTARA,HALAMAN AMPANG,31350,IPOH,101.137528,4.585242
ABA2070,SEKOLAH KEBANGSAAN SERI MUTIARA,Rendah,SK,PERAK,PPD KINTA UTARA,JALAN TUNKU ABDUL RAHMAN,30010,IPOH,101.082663,4.632303
ABA2071,SEKOLAH KEBANGSAAN TASIK DAMAI,Rendah,SK,PERAK,PPD KINTA UTARA,JALAN TAWAS BARU UTARA,30010,IPOH,101.103025,4.656515
ABA2072,SEKOLAH KEBANGSAAN PAKATAN JAYA,Rendah,SK,PERAK,PPD KINTA UTARA,TAMAN PAKATAN JAYA,31150,ULU KINTA,101.144456,4.639265
ABA2073,SEKOLAH KEBANGSAAN KELEBANG JAYA,Rendah,SK,PERAK,PPD KINTA UTARA,PLOT 2597,31200,CHEMOR,101.107051,4.688368
ABA2074,SEKOLAH KEBANGSAAN TANAH HITAM,Rendah,SK,PERAK,PPD KINTA UTARA,JALAN ULU KUANG,31200,CHEMOR,101.149156,4.742995
ABA2075,SEKOLAH KEBANGSAAN MERU RAYA,Rendah,SK,PERAK,PPD KINTA UTARA,LEBUH MERU RAYA,30020,IPOH,101.089645,4.670887
ABA3001,SEKOLAH KEBANGSAAN ALOR PONGSU,Rendah,SK,PERAK,PPD KRIAN,JALAN SELAMA ALOR PONGSU,34300,BAGAN SERAI,100.592358,5.056040
ABA3002,SEKOLAH KEBANGSAAN BAGAN SERAI,Rendah,SK,PERAK,PPD KRIAN,LORONG SEKOLAH,34300,BAGAN SERAI,100.537224,5.011188
ABA3003,SEKOLAH KEBANGSAAN BUKIT MERAH,Rendah,SK,PERAK,PPD KRIAN,PEKAN BUKIT MERAH,34310,BAGAN SERAI,100.654248,5.043386
ABA3004,SEKOLAH KEBANGSAAN CHANGKAT LOBAK,Rendah,SK,PERAK,PPD KRIAN,CHANGKAT LOBAK,34310,BAGAN SERAI,100.632228,5.128415
ABA3005,SEKOLAH KEBANGSAAN DATO' MAS'UD,Rendah,SK,PERAK,PPD KRIAN,JALAN KAMPUNG KEDAH,34300,BAGAN SERAI,100.555583,4.969275
ABA3006,SEKOLAH KEBANGSAAN KUALA KURAU,Rendah,SK,PERAK,PPD KRIAN,JALAN BESAR KUALA KURAU,34350,KUALA KURAU,100.433278,5.019701
ABA3007,SEKOLAH KEBANGSAAN MATANG GERDU,Rendah,SK,PERAK,PPD KRIAN,JALAN SIAKAP,34300,BAGAN SERAI,100.498869,5.019394
ABA3008,SEKOLAH KEBANGSAAN MATANG JELUTONG,Rendah,SK,PERAK,PPD KRIAN,"KG MATANG JELUTONG, JALAN SELAMA",34300,BAGAN SERAI,100.562544,5.033053
ABA3009,SEKOLAH KEBANGSAAN PARIT HAJI TAIB,Rendah,SK,PERAK,PPD KRIAN,PARIT HAJI TAIB,34300,BAGAN SERAI,100.575384,5.019180
ABA3010,SEKOLAH KEBANGSAAN PARIT HAJI AMAN,Rendah,SK,PERAK,PPD KRIAN,PARIT HAJI AMAN,34300,BAGAN SERAI,100.599976,5.016692
ABA3011,SEKOLAH KEBANGSAAN SUNGAI BOGAK,Rendah,SK,PERAK,PPD KRIAN,KAMPUNG SUNGAI BOGAK,34300,BAGAN SERAI,100.517552,5.045720
ABA3012,SEKOLAH KEBANGSAAN SRI SIAKAP,Rendah,SK,PERAK,PPD KRIAN,SIMPANG TIGA,34350,KUALA KURAU,100.440396,5.030648
ABA3013,SEKOLAH KEBANGSAAN TEBUK PANCUR,Rendah,SK,PERAK,PPD KRIAN,SIMPANG EMPAT,34400,SEMANGGOL,100.651499,5.014069
ABA3014,SEKOLAH KEBANGSAAN TELUK MEDAN,Rendah,SK,PERAK,PPD KRIAN,"JALAN TAIPING, TELUK MEDAN",34300,BAGAN SERAI,100.575866,4.987589
ABA3015,SEKOLAH KEBANGSAAN TELOK PIAL,Rendah,SK,PERAK,PPD KRIAN,TELOK PIAL,34350,KUALA KURAU,100.413725,5.040299
ABA3016,SEKOLAH KEBANGSAAN JALAN BAHARU,Rendah,SK,PERAK,PPD KRIAN,JALAN BAHARU,34200,PARIT BUNTAR,100.468871,5.060252
ABA3017,SEKOLAH KEBANGSAAN HAJI RAMLI,Rendah,SK,PERAK,PPD KRIAN,KEDAI EMPAT,34250,TANJONG PIANDANG,100.435810,5.108284
ABA3018,SEKOLAH KEBANGSAAN KAMPONG KEDAH,Rendah,SK,PERAK,PPD KRIAN,KAMPONG KEDAH,34200,PARIT BUNTAR,100.479342,5.116971
ABA3019,SEKOLAH KEBANGSAAN SRI KERIAN,Rendah,SK,PERAK,PPD KRIAN,JALAN RIA,34200,PARIT BUNTAR,100.488027,5.127403
ABA3020,SEKOLAH KEBANGSAAN PARIT HJ WAHAB,Rendah,SK,PERAK,PPD KRIAN,TANJONG PIANDANG,34250,TANJONG PIANDANG,100.425611,5.088100
ABA3021,SEKOLAH KEBANGSAAN PARIT TOK NGAH,Rendah,SK,PERAK,PPD KRIAN,JALAN BAHARU,34200,PARIT BUNTAR,100.457541,5.079830
ABA3022,SEKOLAH KEBANGSAAN SUNGAI BAHARU,Rendah,SK,PERAK,PPD KRIAN,SUNGAI BAHARU,34350,KUALA KURAU,100.394984,5.040648
ABA3023,SEKOLAH KEBANGSAAN SUNGAI BURONG,Rendah,SK,PERAK,PPD KRIAN,PARIT TELOK PIAL,34350,KUALA KURAU,100.438003,5.053268
ABA3024,SEKOLAH KEBANGSAAN SUNGAI STAR,Rendah,SK,PERAK,PPD KRIAN,JALAN SEMPADAN,34200,PARIT BUNTAR,100.452760,5.127116
ABA3025,SEKOLAH KEBANGSAAN TANAH KEBUN,Rendah,SK,PERAK,PPD KRIAN,TANAH KEBUN,34200,PARIT BUNTAR,100.480005,5.076489
ABA3026,SEKOLAH KEBANGSAAN TANJONG PIANDANG,Rendah,SK,PERAK,PPD KRIAN,JALAN ATAS,34250,TANJONG PIANDANG,100.393206,5.076201
ABA3027,SEKOLAH KEBANGSAAN TITI SERONG,Rendah,SK,PERAK,PPD KRIAN,TITI SERONG,34200,PARIT BUNTAR,100.466431,5.103921
ABA3028,SEKOLAH KEBANGSAAN SUNGAI MEGAT ARIS,Rendah,SK,PERAK,PPD KRIAN,"SUNGAI MEGAT ARIS, BAGAN TIANG",34250,TANJONG PIANDANG,100.408441,5.106616
ABA3029,SEKOLAH KEBANGSAAN GUNONG SEMANGGOL,Rendah,SK,PERAK,PPD KRIAN,"GUNONG SEMANGGOL, SIMPANG EMPAT",34400,SEMANGGOL,100.650746,4.968423
ABA3030,SEKOLAH KEBANGSAAN KAMPONG DEW,Rendah,SK,PERAK,PPD KRIAN,KAMPUNG DEW,34400,SIMPANG EMPAT,100.659152,4.912936
ABA3031,SEKOLAH KEBANGSAAN DATO' ALAUDIN,Rendah,SK,PERAK,PPD KRIAN,KAMPUNG SELINSING,34400,SIMPANG EMPAT,100.627892,4.927920
ABA3032,SEKOLAH KEBANGSAAN SAMA GAGAH,Rendah,SK,PERAK,PPD KRIAN,"SIMPANG EMPAT, SEMANGGOL",34400,SIMPANG EMPAT,100.633659,4.915061
ABA3033,SEKOLAH KEBANGSAAN SUNGAI KEPAR,Rendah,SK,PERAK,PPD KRIAN,SIMPANG EMPAT SEMANGGOL,34400,SIMPANG EMPAT,100.630183,4.949575
ABA3034,SEKOLAH KEBANGSAAN SERI PINANG,Rendah,SK,PERAK,PPD KRIAN,JALAN GULA,34400,SIMPANG EMPAT,100.597627,4.950313
ABA3035,SEKOLAH KEBANGSAAN KAMPONG TUA,Rendah,SK,PERAK,PPD KRIAN,KAMPONG TUA,34400,SIMPANG EMPAT,100.630075,4.968288
ABA3036,SEKOLAH KEBANGSAAN KAMPONG SELAMAT,Rendah,SK,PERAK,PPD KRIAN,KAMPONG SELAMAT,34400,SIMPANG EMPAT,100.688906,4.985307
ABA3037,SEKOLAH KEBANGSAAN HAJI DAHLAN,Rendah,SK,PERAK,PPD KRIAN,"TEBOK MATAU, SIMPANG EMPAT",34400,GUNONG SEMANGGOL,100.632935,4.988650
ABA3038,SEKOLAH KEBANGSAAN KUALA GULA,Rendah,SK,PERAK,PPD KRIAN,KUALA GULA,34350,KUALA KURAU,100.467242,4.938927
ABA3039,SEKOLAH KEBANGSAAN KUALA KURAU (BARU),Rendah,SK,PERAK,PPD KRIAN,BATU 14 JALAN PANTAI,34350,KUALA KURAU,100.412855,5.017458
ABA3040,SEKOLAH KEBANGSAAN BARU PARIT BUNTAR,Rendah,SK,PERAK,PPD KRIAN,JALAN SEKOLAH,34200,PARIT BUNTAR,100.480681,5.124810
ABA3041,SEKOLAH KEBANGSAAN WAWASAN,Rendah,SK,PERAK,PPD KRIAN,PEKAN BARU,34200,PARIT BUNTAR,100.493990,5.118171
ABA4001,SEKOLAH KEBANGSAAN SAYONG,Rendah,SK,PERAK,PPD KUALA KANGSAR,KUALA KANGSAR,33040,KUALA KANGSAR,100.958609,4.775790
ABA4002,SEKOLAH KEBANGSAAN KOTA LAMA KANAN,Rendah,SK,PERAK,PPD KUALA KANGSAR,KOTA LAMA KANAN,33040,KUALA KANGSAR,100.952182,4.785572
ABA4003,SEKOLAH KEBANGSAAN PADANG AMPANG,Rendah,SK,PERAK,PPD KUALA KANGSAR,JALAN IPOH,33000,KUALA KANGSAR,100.953855,4.810481
ABA4004,SEKOLAH KEBANGSAAN BELURU,Rendah,SK,PERAK,PPD KUALA KANGSAR,"JALAN KAMPUNG KUBANG HALBAN, ENGGOR",33600,KUALA KANGSAR,100.942599,4.823735
ABA4005,SEKOLAH KEBANGSAAN BENDANG KERING,Rendah,SK,PERAK,PPD KUALA KANGSAR,KG. BENDANG KERING,33040,KUALA KANGSAR,100.970358,4.764351
ABA4006,SEKOLAH KEBANGSAAN MENORA,Rendah,SK,PERAK,PPD KUALA KANGSAR,KAMPUNG MENORA,33000,KUALA KANGSAR,100.946372,4.717241
ABA4007,SEKOLAH KEBANGSAAN BEKOR,Rendah,SK,PERAK,PPD KUALA KANGSAR,KG. BEKOR,33800,KUALA KANGSAR,100.926995,4.578282
ABA4008,SEKOLAH KEBANGSAAN KUALA KENAS,Rendah,SK,PERAK,PPD KUALA KANGSAR,JALAN KUALA KENAS,33000,KUALA KANGSAR,100.928062,4.672890
ABA4009,SEKOLAH KEBANGSAAN SENGGANG,Rendah,SK,PERAK,PPD KUALA KANGSAR,"JALAN TUN SABAN, KAMPUNG SENGGANG",33000,KUALA KANGSAR,100.928647,4.668944
ABA4010,SEKOLAH KEBANGSAAN RAMBAI TUJUH,Rendah,SK,PERAK,PPD KUALA KANGSAR,KAMPUNG RAMBAI TUJUH,33000,KUALA KANGSAR,100.963873,4.691850
ABA4011,SEKOLAH KEBANGSAAN SULTAN IDRIS II,Rendah,SK,PERAK,PPD KUALA KANGSAR,"646, JLN TUN ABDUL RAZAK",33000,KUALA KANGSAR,100.935010,4.775730
ABA4012,SEKOLAH KEBANGSAAN RAJA PEREMPUAN MUZWIN,Rendah,SK,PERAK,PPD KUALA KANGSAR,BUKIT CHANDAN,33000,KUALA KANGSAR,100.944828,4.764274
ABA4013,SEKOLAH KEBANGSAAN TANAH MERAH,Rendah,SK,PERAK,PPD KUALA KANGSAR,LUBOK MERBAU,33010,KUALA KANGSAR,100.909323,4.811688
ABA4014,SEKOLAH KEBANGSAAN SYEIKH MOHD. IDRIS AL-MARBAWI,Rendah,SK,PERAK,PPD KUALA KANGSAR,LUBOK MERBAU,33010,KUALA KANGSAR,100.894790,4.806117
ABA4015,SEKOLAH KEBANGSAAN KATI,Rendah,SK,PERAK,PPD KUALA KANGSAR,JALAN BESAR KATI,33020,KUALA KANGSAR,100.906446,4.878032
ABA4016,SEKOLAH KEBANGSAAN CHEH,Rendah,SK,PERAK,PPD KUALA KANGSAR,KATI,33020,KUALA KANGSAR,100.936056,4.878796
ABA4017,SEKOLAH KEBANGSAAN SAUK,Rendah,SK,PERAK,PPD KUALA KANGSAR,JALAN LENGGONG,33500,KUALA KANGSAR,100.924289,4.943163
ABA4018,SEKOLAH KEBANGSAAN SULTAN ABDUL AZIZ,Rendah,SK,PERAK,PPD KUALA KANGSAR,KAMPUNG KETIOR,33000,KUALA KANGSAR,100.914130,4.714790
ABA4019,SEKOLAH KEBANGSAAN ULU KENAS,Rendah,SK,PERAK,PPD KUALA KANGSAR,KAMPUNG ULU KENAS,33800,MANONG,100.901883,4.682750
ABA4020,SEKOLAH KEBANGSAAN LEMPOR,Rendah,SK,PERAK,PPD KUALA KANGSAR,JALAN BESAR MANONG,33800,KUALA KANGSAR,100.898767,4.652512
ABA4021,SEKOLAH KEBANGSAAN JELIANG,Rendah,SK,PERAK,PPD KUALA KANGSAR,"JALAN BARU, KAMPUNG JELIANG",33800,MANONG,100.874970,4.624176
ABA4022,SEKOLAH KEBANGSAAN ARA PANJANG,Rendah,SK,PERAK,PPD KUALA KANGSAR,KG. ARA PANJANG,33800,MANONG,100.890459,4.618100
ABA4023,SEKOLAH KEBANGSAAN MANONG,Rendah,SK,PERAK,PPD KUALA KANGSAR,JALAN BRUAS,33800,MANONG,100.882448,4.590631
ABA4024,SEKOLAH KEBANGSAAN ULU PIOL,Rendah,SK,PERAK,PPD KUALA KANGSAR,"JALAN HJ OTHMAN, KG ULU PIOL",33800,MANONG,100.878740,4.579640
ABA4025,SEKOLAH KEBANGSAAN TALANG,Rendah,SK,PERAK,PPD KUALA KANGSAR,JALAN TAIPING,33000,KUALA KANGSAR,100.913889,4.775000
ABA4026,SEKOLAH KEBANGSAAN PADANG ASAM,Rendah,SK,PERAK,PPD KUALA KANGSAR,PADANG ASAM,33700,PADANG RENGAS,100.885640,4.769873
ABA4027,SEKOLAH KEBANGSAAN TUN DR ISMAIL,Rendah,SK,PERAK,PPD KUALA KANGSAR,JALAN BESAR TAIPING,33700,PADANG RENGAS,100.848742,4.776865
ABA4028,SEKOLAH KEBANGSAAN PAYA SALAK,Rendah,SK,PERAK,PPD KUALA KANGSAR,PADANG RENGAS,33700,KUALA KANGSAR,100.841471,4.795947
ABA4029,SEKOLAH KEBANGSAAN LANEH,Rendah,SK,PERAK,PPD KUALA KANGSAR,KAMPUNG LANEH LUBOK MERBAU,33010,KUALA KANGSAR,100.856458,4.823786
ABA4030,SEKOLAH KEBANGSAAN PEREMPUAN,Rendah,SK,PERAK,PPD KUALA KANGSAR,"JALAN BESAR, PEKAN PADANG RENGAS",33700,PADANG RENGAS,100.843997,4.775242
ABA4031,SEKOLAH KEBANGSAAN KARAI,Rendah,SK,PERAK,PPD KUALA KANGSAR,KG. KARAI,33600,ENGGOR,100.963632,4.839486
ABA4032,SEKOLAH KEBANGSAAN SUNGAI SIPUT (U),Rendah,SK,PERAK,PPD KUALA KANGSAR,JALAN IPOH,31100,SUNGAI SIPUT (U),101.079688,4.815224
ABA4033,SEKOLAH KEBANGSAAN TROSOR,Rendah,SK,PERAK,PPD KUALA KANGSAR,KAMPUNG TROSOR,31100,SUNGAI SIPUT (U),101.021728,4.884624
ABA4034,SEKOLAH KEBANGSAAN LASAH,Rendah,SK,PERAK,PPD KUALA KANGSAR,PEKAN LASAH,31100,SUNGAI SIPUT (U),101.121678,4.953907
ABA4035,SEKOLAH KEBANGSAAN RKT LASAH,Rendah,SK,PERAK,PPD KUALA KANGSAR,JLN. SEKOLAH  FELDA LASAH,31120,SUNGAI SIPUT (U),101.071553,4.927876
ABA4036,SEKOLAH KEBANGSAAN JAWANG,Rendah,SK,PERAK,PPD KUALA KANGSAR,SALAK UTARA,31050,SUNGAI SIPUT (U),100.982142,4.883106
ABA4037,SEKOLAH KEBANGSAAN PERIANG,Rendah,SK,PERAK,PPD KUALA KANGSAR,KAMPUNG PERIANG,33600,ENGGOR,100.955538,4.873863
ABA4038,SEKOLAH KEBANGSAAN TEMIN,Rendah,SK,PERAK,PPD KUALA KANGSAR,KAMPUNG TEMIN,31100,SUNGAI SIPUT (U),101.047408,4.864358
ABA4039,SEKOLAH KEBANGSAAN JALONG,Rendah,SK,PERAK,PPD KUALA KANGSAR,KAMPUNG JALONG,31100,SUNGAI SIPUT (U),101.143113,4.832260
ABA4040,SEKOLAH KEBANGSAAN TEMONG,Rendah,SK,PERAK,PPD KUALA KANGSAR,KG.TEMONG,33600,KUALA KANGSAR,100.946863,4.869314
ABA4041,SEKOLAH KEBANGSAAN CHEGAR GALAH,Rendah,SK,PERAK,PPD KUALA KANGSAR,KG. CHEGAR GALAH,33500,SAUK,100.971065,4.899430
ABA4042,SEKOLAH KEBANGSAAN LINTANG,Rendah,SK,PERAK,PPD KUALA KANGSAR,KG.LINTANG,31100,SUNGAI SIPUT (U),101.103673,4.936771
ABA4043,SEKOLAH KEBANGSAAN KAMPUNG MAAMOR,Rendah,SK,PERAK,PPD KUALA KANGSAR,KAMPUNG MAAMOR,31120,SUNGAI SIPUT (U),101.052967,4.918106
ABA4044,SEKOLAH KEBANGSAAN ULU RIBU,Rendah,SK,PERAK,PPD KUALA KANGSAR,KAMPUNG ULU RIBU,33600,ENGGOR,100.917948,4.852461
ABA4045,SEKOLAH KEBANGSAAN SEROLI,Rendah,SK,PERAK,PPD KUALA KANGSAR,KAMPUNG BEKUT,31100,SUNGAI SIPUT (U),101.005534,4.918138
ABA4046,SEKOLAH KEBANGSAAN JENALIK,Rendah,SK,PERAK,PPD KUALA KANGSAR,KAMPUNG JENALIK,33500,SAUK,100.924062,4.969842
ABA4047,SEKOLAH KEBANGSAAN CHENEIN,Rendah,SK,PERAK,PPD KUALA KANGSAR,LASAH,31110,SUNGAI SIPUT (U),101.144316,4.953962
ABA4048,SEKOLAH KEBANGSAAN PERLOP 1,Rendah,SK,PERAK,PPD KUALA KANGSAR,KAMPUNG PERLOP 1,31100,SUNGAI SIPUT (U),101.178192,4.904042
ABA4049,SEKOLAH KEBANGSAAN POS POI,Rendah,SK,PERAK,PPD KUALA KANGSAR,LASAH,31100,SUNGAI SIPUT (U),101.191754,5.096339
ABA4050,SEKOLAH KEBANGSAAN POS PERWOR,Rendah,SK,PERAK,PPD KUALA KANGSAR,LASAH,31100,SUNGAI SIPUT (U),101.263989,5.015601
ABA4051,SEKOLAH KEBANGSAAN POS LEGAP,Rendah,SK,PERAK,PPD KUALA KANGSAR,LASAH,31100,KUALA KANGSAR,101.270402,4.941088
ABA4052,SEKOLAH KEBANGSAAN POS PIAH,Rendah,SK,PERAK,PPD KUALA KANGSAR,LASAH,31100,SUNGAI SIPUT (U),101.268960,5.080764
ABA4053,SEKOLAH KEBANGSAAN KAMPUNG KENANG,Rendah,SK,PERAK,PPD KUALA KANGSAR,JALONG TINGGI,31100,SUNGAI SIPUT (U),101.186654,4.852326
ABA4054,SEKOLAH KEBANGSAAN POS KUALA MU,Rendah,SK,PERAK,PPD KUALA KANGSAR,LASAH,31100,SUNGAI SIPUT (U),101.333778,4.837443
ABA4055,SEKOLAH KEBANGSAAN POS SUNGAI PELANTOK,Rendah,SK,PERAK,PPD KUALA KANGSAR,SUNGAI SIPUT(U),31100,SUNGAI SIPUT (U),101.168992,4.788415
ABA4056,SEKOLAH KEBANGSAAN RAJA MUDA MUSA,Rendah,SK,PERAK,PPD KUALA KANGSAR,JALAN SULTAN ISKANDAR SHAH,33000,KUALA KANGSAR,100.926067,4.760233
ABA4057,SEKOLAH KEBANGSAAN KAMPUNG MUHIBAH,Rendah,SK,PERAK,PPD KUALA KANGSAR,JALAN JALONG,31100,SUNGAI SIPUT (U),101.091172,4.825904
ABA4058,SEKOLAH KEBANGSAAN KAMPUNG NASIB,Rendah,SK,PERAK,PPD KUALA KANGSAR,"JALAN IPOH, ENGGOR",33600,KUALA KANGSAR,100.982172,4.835487
ABA5001,SEKOLAH KEBANGSAAN KUMPULAN GANDA,Rendah,SK,PERAK,PPD HILIR PERAK,BATU 7 JALAN CHANGKAT JONG,36000,TELUK INTAN,101.200363,3.903968
ABA5002,SEKOLAH KEBANGSAAN SULTAN IDRIS 2,Rendah,SK,PERAK,PPD HILIR PERAK,JALAN JAWA,36000,TELUK INTAN,101.027870,4.023897
ABA5003,SEKOLAH KEBANGSAAN SERI INTAN,Rendah,SK,PERAK,PPD HILIR PERAK,JLN MAHARANI,36000,TELUK INTAN,101.018926,4.027436
ABA5004,SEKOLAH KEBANGSAAN SELABAK,Rendah,SK,PERAK,PPD HILIR PERAK,JALAN KAMPUNG SELABAK,36000,TELUK INTAN,101.050922,3.971349
ABA5005,SEKOLAH KEBANGSAAN CHANGKAT JONG,Rendah,SK,PERAK,PPD HILIR PERAK,"BT 8, KG. BARU CHANGKAT JONG",36000,TELUK INTAN,101.122558,3.983093
ABA5006,SEKOLAH KEBANGSAAN AYER HITAM,Rendah,SK,PERAK,PPD HILIR PERAK,"BATU 15, JALAN BIDOR",36030,TELUK INTAN,101.201501,4.020495
ABA5007,SEKOLAH KEBANGSAAN TEBOK BANJAR,Rendah,SK,PERAK,PPD HILIR PERAK,KAMPUNG BANJAR,36000,TELUK INTAN,101.026217,3.981396
ABA5008,SEKOLAH KEBANGSAAN SUNGAI DURIAN,Rendah,SK,PERAK,PPD HILIR PERAK,KAMPUNG SUNGAI DURIAN,36000,TELUK INTAN,100.978047,3.998940
ABA5009,SEKOLAH KEBANGSAAN DATO' LAKSAMANA RAJA MAHKOTA,Rendah,SK,PERAK,PPD HILIR PERAK,BATU 3  1/2 JALAN MAHARAJALELA,36000,TELUK INTAN,100.993994,3.992847
ABA5012,SEKOLAH KEBANGSAAN TELUK BIRAH,Rendah,SK,PERAK,PPD HILIR PERAK,"KG. TELUK BIRAH, MUKIM SG DURIAN",36000,TELUK INTAN,100.930043,4.031055
ABA5014,SEKOLAH KEBANGSAAN SUNGAI RUSA,Rendah,SK,PERAK,PPD HILIR PERAK,KAMPUNG SUNGAI RUBANA,36000,TELUK INTAN,100.911035,3.995056
ABA5015,SEKOLAH KEBANGSAAN SUNGAI JEJAWI,Rendah,SK,PERAK,PPD HILIR PERAK,KAMPUNG SUNGAI JEJAWI,36000,TELUK INTAN,100.928203,4.062174
ABA5060,SEKOLAH KEBANGSAAN DATO' YAHYA SUBBAN,Rendah,SK,PERAK,PPD HILIR PERAK,JALAN LABU KUBONG,36600,CHENDERONG BALAI,101.081899,4.123366
ABA5061,SEKOLAH KEBANGSAAN SUNGAI TUNGKU,Rendah,SK,PERAK,PPD HILIR PERAK,KM 5 JALAN SUNGAI MANIK,36000,TELUK INTAN,101.038902,4.075669
ABA5062,SEKOLAH KEBANGSAAN CHIKUS,Rendah,SK,PERAK,PPD HILIR PERAK,"JALAN CHIKUS, OFF JLN SG MANIK, KG CHIKUS",36750,LANGKAP,101.121258,4.072067
ABA5063,SEKOLAH KEBANGSAAN PERMATANG,Rendah,SK,PERAK,PPD HILIR PERAK,PARIT 7B SG MANIK,36000,TELUK INTAN,101.078083,4.058239
ABA5064,SEKOLAH KEBANGSAAN SG LAMPAM,Rendah,SK,PERAK,PPD HILIR PERAK,SUNGAI LAMPAM,36750,CHIKUS,101.113002,4.104503
ABA5065,SEKOLAH KEBANGSAAN SUNGAI TUKANG SIDIN,Rendah,SK,PERAK,PPD HILIR PERAK,KG SUNGAI TUKANG SIDIN,36700,LANGKAP,101.104386,4.055479
ABA5066,SEKOLAH KEBANGSAAN SERI LANGKAP,Rendah,SK,PERAK,PPD HILIR PERAK,JALAN BESAR LANGKAP,36700,LANGKAP,101.147112,4.069004
ABA5067,SEKOLAH KEBANGSAAN PEKAN RABU,Rendah,SK,PERAK,PPD HILIR PERAK,PARIT 13A SUNGAI MANIK,36000,TELUK INTAN,101.078100,4.090527
ABA5068,SEKOLAH KEBANGSAAN PERMATANG PELANDOK,Rendah,SK,PERAK,PPD HILIR PERAK,KG.PERMATANG PELANDOK,36600,CHENDERONG BALAI,101.029050,4.112732
ABA5069,SEKOLAH KEBANGSAAN DEGONG,Rendah,SK,PERAK,PPD HILIR PERAK,JALAN KAMPAR,36700,LANGKAP,101.137700,4.095843
ABA5070,SEKOLAH KEBANGSAAN PENGKALAN ARA,Rendah,SK,PERAK,PPD HILIR PERAK,"PARIT 5, OFF JLN TELUK INTAN CHENDERONG BALAI",36600,CHENDERONG BALAI,101.051805,4.119002
ABA5071,SEKOLAH KEBANGSAAN SUNGAI KERAWAI,Rendah,SK,PERAK,PPD HILIR PERAK,KG SUNGAI KERAWAI,36000,TELUK INTAN,101.067533,4.030842
ABA5072,SEKOLAH KEBANGSAAN KAMPUNG BAHARU REDANG PONGGOR,Rendah,SK,PERAK,PPD HILIR PERAK,"KM 33, JALAN KAMPAR",36700,LANGKAP,101.127805,4.150311
ABA5073,SEKOLAH KEBANGSAAN KAMPUNG BAHAGIA,Rendah,SK,PERAK,PPD HILIR PERAK,"KM 7,  JALAN SUNGAI MANIK",36000,TELUK INTAN,101.048467,4.037563
ABA5074,SEKOLAH KEBANGSAAN SERI SETIA,Rendah,SK,PERAK,PPD HILIR PERAK,JALAN PADANG TEMBAK,36000,TELUK INTAN,101.032455,3.991052
ABA5075,SEKOLAH KEBANGSAAN RAJA MUDA MUSA,Rendah,SK,PERAK,PPD HILIR PERAK,PEKAN BARU,36000,TELUK INTAN,101.013480,3.990361
ABA5077,SEKOLAH KEBANGSAAN PERWIRA,Rendah,SK,PERAK,PPD HILIR PERAK,"KM 5, JALAN CHANGKAT JONG",36000,TELUK INTAN,101.044287,4.000626
ABA5078,SEKOLAH KEBANGSAAN ST.ANTHONY,Rendah,SK,PERAK,PPD HILIR PERAK,JALAN CHUI CHAK,36700,LANGKAP,101.155297,4.071210
ABA6001,SEKOLAH KEBANGSAAN LONG JAAFAR,Rendah,SK,PERAK,PPD LARUT/MATANG/SELAMA,"LOT 331, JALAN KAMPUNG JANA",34600,KAMUNTING,100.729320,4.888683
ABA6002,SEKOLAH KEBANGSAAN ASAM KUMBANG,Rendah,SK,PERAK,PPD LARUT/MATANG/SELAMA,ASAM KUMBANG,34000,TAIPING,100.721487,4.861751
ABA6003,SEKOLAH KEBANGSAAN LAKSAMANA,Rendah,SK,PERAK,PPD LARUT/MATANG/SELAMA,JALAN TAIPING,34650,KUALA SEPETANG,100.633143,4.839622
ABA6004,SEKOLAH KEBANGSAAN MATANG,Rendah,SK,PERAK,PPD LARUT/MATANG/SELAMA,JALAN HUJUNG MATANG,34750,MATANG,100.678945,4.811304
ABA6005,SEKOLAH KEBANGSAAN NGAH IBRAHIM,Rendah,SK,PERAK,PPD LARUT/MATANG/SELAMA,JALAN MATANG,34750,MATANG,100.661341,4.842265
ABA6006,SEKOLAH KEBANGSAAN MATANG GELUGUR,Rendah,SK,PERAK,PPD LARUT/MATANG/SELAMA,JALAN MATANG GELUGOR,34750,MATANG,100.678755,4.783364
ABA6007,SEKOLAH KEBANGSAAN SIMPANG,Rendah,SK,PERAK,PPD LARUT/MATANG/SELAMA,TAMAN KOTA JAYA,34700,SIMPANG,100.703894,4.822812
ABA6008,SEKOLAH KEBANGSAAN SULTAN YUSSUF AMDR,Rendah,SK,PERAK,PPD LARUT/MATANG/SELAMA,JALAN KAMUNTING LAMA,34000,TAIPING,100.750825,4.865004
ABA6009,SEKOLAH KEBANGSAAN TAIPING,Rendah,SK,PERAK,PPD LARUT/MATANG/SELAMA,JALAN TAMING SARI,34000,TAIPING,100.733928,4.847890
ABA6010,SEKOLAH KEBANGSAAN SERI AMAN,Rendah,SK,PERAK,PPD LARUT/MATANG/SELAMA,JALAN POKOK ASSAM,34000,TAIPING,100.743550,4.830230
ABA6011,SEKOLAH KEBANGSAAN CHANGKAT LARUT,Rendah,SK,PERAK,PPD LARUT/MATANG/SELAMA,JALAN AYER KUNING,34850,CHANGKAT JERING.,100.741591,4.804567
ABA6012,SEKOLAH KEBANGSAAN BENDANG SIAM,Rendah,SK,PERAK,PPD LARUT/MATANG/SELAMA,JALAN TRONG,34850,CHANGKAT JERING,100.721331,4.769227
ABA6013,SEKOLAH KEBANGSAAN TOH JOHAN,Rendah,SK,PERAK,PPD LARUT/MATANG/SELAMA,JALAN BERUAS,34800,TRONG,100.718957,4.701389
ABA6014,SEKOLAH KEBANGSAAN TEMELOK,Rendah,SK,PERAK,PPD LARUT/MATANG/SELAMA,PEKAN TEMELOK,34800,TRONG,100.693202,4.655046
ABA6015,SEKOLAH KEBANGSAAN PADANG GAJAH,Rendah,SK,PERAK,PPD LARUT/MATANG/SELAMA,JALAN BERUAS,34800,TRONG,100.716477,4.612049
ABA6016,SEKOLAH KEBANGSAAN SUNGAI TINGGI,Rendah,SK,PERAK,PPD LARUT/MATANG/SELAMA,JALAN PANTAI REMIS-TAIPING,34800,TRONG,100.679601,4.585501
ABA6017,SEKOLAH KEBANGSAAN BATU HAMPAR,Rendah,SK,PERAK,PPD LARUT/MATANG/SELAMA,BATU 26 JALAN TAIPING-BERUAS,32700,BERUAS,100.717293,4.531954
ABA6018,SEKOLAH KEBANGSAAN CHANGKAT JERING,Rendah,SK,PERAK,PPD LARUT/MATANG/SELAMA,JALAN KUALA KANGSAR,34850,CHANGKAT JERING,100.720452,4.792009
ABA6019,SEKOLAH KEBANGSAAN JELUTONG,Rendah,SK,PERAK,PPD LARUT/MATANG/SELAMA,JALAN KUALA KANGSAR,34850,CHANGKAT JERING,100.744195,4.779143
ABA6020,SEKOLAH KEBANGSAAN DATO' PANGLIMA BKT GANTANG,Rendah,SK,PERAK,PPD LARUT/MATANG/SELAMA,JALAN KUALA KANGSAR,34850,CHANGKAT JERING,100.772880,4.782458
ABA6021,SEKOLAH KEBANGSAAN CHANGKAT IBUL,Rendah,SK,PERAK,PPD LARUT/MATANG/SELAMA,CHANGKAT JERING,34850,TAIPING,100.741504,4.761244
ABA6022,SEKOLAH KEBANGSAAN SULTAN ABDULLAH,Rendah,SK,PERAK,PPD LARUT/MATANG/SELAMA,KG CHEH,34850,CHANGKAT JERING,100.766337,4.758894
ABA6023,SEKOLAH KEBANGSAAN TOH SAJAK,Rendah,SK,PERAK,PPD LARUT/MATANG/SELAMA,JALAN BESAR BATU KURAU,34500,BATU KURAU,100.794034,4.974575
ABA6024,SEKOLAH KEBANGSAAN KAMPONG PERAK,Rendah,SK,PERAK,PPD LARUT/MATANG/SELAMA,KAMPONG PERAK,34500,BATU KURAU,100.812172,4.937215
ABA6025,SEKOLAH KEBANGSAAN KAMPUNG GUDANG,Rendah,SK,PERAK,PPD LARUT/MATANG/SELAMA,JALAN KAMPUNG GUDANG,34520,BATU KURAU,100.806256,5.041120
ABA6026,SEKOLAH KEBANGSAAN KAMPUNG REPOH,Rendah,SK,PERAK,PPD LARUT/MATANG/SELAMA,JALAN BESAR KAMPONG REPOH,34500,BATU KURAU,100.820395,4.948594
ABA6027,SEKOLAH KEBANGSAAN KAMPUNG YAMAN,Rendah,SK,PERAK,PPD LARUT/MATANG/SELAMA,BATU 20,34520,BATU KURAU,100.790049,5.033677
ABA6028,SEKOLAH KEBANGSAAN KAMPUNG RELANG,Rendah,SK,PERAK,PPD LARUT/MATANG/SELAMA,JALAN KAMPONG RELANG,34520,BATU KURAU,100.814104,5.036549
ABA6029,SEKOLAH KEBANGSAAN JELAI,Rendah,SK,PERAK,PPD LARUT/MATANG/SELAMA,"JALAN BESAR, JELAI",34520,BATU KURAU,100.811366,5.012584
ABA6030,SEKOLAH KEBANGSAAN PANTAI BESAR,Rendah,SK,PERAK,PPD LARUT/MATANG/SELAMA,JALAN PANTAI BESAR,34520,BATU KURAU,100.841318,5.086145
ABA6031,SEKOLAH KEBANGSAAN PONDOK TANJONG,Rendah,SK,PERAK,PPD LARUT/MATANG/SELAMA,JALAN SEKOLAH,34010,TAIPING,100.732086,5.018145
ABA6032,SEKOLAH KEBANGSAAN ULU SEPETANG,Rendah,SK,PERAK,PPD LARUT/MATANG/SELAMA,TAIPING,34010,TAIPING,100.731013,4.964097
ABA6033,SEKOLAH KEBANGSAAN HAJI WAN JAAFAR,Rendah,SK,PERAK,PPD LARUT/MATANG/SELAMA,"JALAN KAMPONG MASJID, IJOK",34510,BATU KURAU,100.833112,5.133514
ABA6034,SEKOLAH KEBANGSAAN SUNGAI JERNIH,Rendah,SK,PERAK,PPD LARUT/MATANG/SELAMA,"JALAN SUNGAI JERNIH, IJOK",34510,BATU KURAU,100.866890,5.141261
ABA6035,SEKOLAH KEBANGSAAN SRI KURAU,Rendah,SK,PERAK,PPD LARUT/MATANG/SELAMA,ANAK  KURAU,34500,BATU KURAU,100.783935,4.942288
ABA6036,SEKOLAH KEBANGSAAN SRI SELAMA,Rendah,SK,PERAK,PPD LARUT/MATANG/SELAMA,JALAN SIR CHULAN,34100,SELAMA,100.690128,5.222220
ABA6037,SEKOLAH KEBANGSAAN TEBING TINGGI,Rendah,SK,PERAK,PPD LARUT/MATANG/SELAMA,KUBU GAJAH,34130,SELAMA,100.656024,5.146731
ABA6038,SEKOLAH KEBANGSAAN SUNGAI DENDANG,Rendah,SK,PERAK,PPD LARUT/MATANG/SELAMA,JALAN KUBU GAJAH,34130,SELAMA,100.707608,5.169656
ABA6039,SEKOLAH KEBANGSAAN BAGAN BAHARU,Rendah,SK,PERAK,PPD LARUT/MATANG/SELAMA,BAGAN BAHARU,34510,BATU KURAU,100.750492,5.134131
ABA6040,SEKOLAH KEBANGSAAN RANTAU PANJANG,Rendah,SK,PERAK,PPD LARUT/MATANG/SELAMA,PEKAN RANTAU PANJANG,34140,RANTAU PANJANG,100.729812,5.238718
ABA6041,SEKOLAH KEBANGSAAN ULU MENGKUANG,Rendah,SK,PERAK,PPD LARUT/MATANG/SELAMA,"JALAN MESJID, ULU MENGKUANG",34140,RANTAU PANJANG,100.764928,5.212919
ABA6042,SEKOLAH KEBANGSAAN BANGGOL JAS,Rendah,SK,PERAK,PPD LARUT/MATANG/SELAMA,BANGGOL JAS,34140,RANTAU PANJANG,100.757030,5.250827
ABA6043,SEKOLAH KEBANGSAAN SUNGAI BAYOR,Rendah,SK,PERAK,PPD LARUT/MATANG/SELAMA,KAMPUNG DAMAK HILIR,34140,RANTAU PANJANG,100.780809,5.251618
ABA6044,SEKOLAH KEBANGSAAN TOH RAKNA SAKTI,Rendah,SK,PERAK,PPD LARUT/MATANG/SELAMA,SUNGAI RAMBUTAN,34140,RANTAU PANJANG,100.758820,5.258523
ABA6045,SEKOLAH KEBANGSAAN SUNGAI SIPUTEH,Rendah,SK,PERAK,PPD LARUT/MATANG/SELAMA,KAMPUNG SUNGAI SIPUTEH,34140,RANTAU PANJANG,100.818639,5.264847
ABA6046,SEKOLAH KEBANGSAAN SULTAN IDRIS II,Rendah,SK,PERAK,PPD LARUT/MATANG/SELAMA,FELDA IJOK,34120,SELAMA,100.764555,5.163503
ABA6047,SEKOLAH KEBANGSAAN BUKIT BERTAM,Rendah,SK,PERAK,PPD LARUT/MATANG/SELAMA,KAMPUNG BUKIT BERTAM,34140,RANTAU PANJANG,100.746500,5.316500
ABA6049,SEKOLAH KEBANGSAAN SUNGAI ARA,Rendah,SK,PERAK,PPD LARUT/MATANG/SELAMA,KAMPUNG SUNGAI ARA,34520,BATU KURAU,100.824542,5.073204
ABA6050,SEKOLAH KEBANGSAAN (RTBK) PONDOK TANJONG,Rendah,SK,PERAK,PPD LARUT/MATANG/SELAMA,KUBU GAJAH,34130,SELAMA,100.714919,5.107028
ABA6051,SEKOLAH KEBANGSAAN KAMUNTING,Rendah,SK,PERAK,PPD LARUT/MATANG/SELAMA,JALAN SEKOLAH RENDAH 1,34600,KAMUNTING,100.724711,4.899259
ABA6052,SEKOLAH KEBANGSAAN PENDIDIKAN KHAS TAIPING,Rendah,SK KHAS,PERAK,PPD LARUT/MATANG/SELAMA,JALAN TAMING SARI,34000,TAIPING,100.733408,4.849527
ABA6053,SEKOLAH KEBANGSAAN PENGKALAN AUR,Rendah,SK,PERAK,PPD LARUT/MATANG/SELAMA,JALAN TAMAN KAYA,34000,TAIPING,100.730301,4.810612
ABA6054,SEKOLAH KEBANGSAAN AYER PUTEH,Rendah,SK,PERAK,PPD LARUT/MATANG/SELAMA,JALAN BARU AYER PUTEH,34700,SIMPANG,100.680777,4.897270
ABA6055,SEKOLAH KEBANGSAAN BUKIT JANA,Rendah,SK,PERAK,PPD LARUT/MATANG/SELAMA,"BATU 4, JALAN BATU KURAU",34600,KAMUNTING,100.733085,4.904684
ABA6056,SEKOLAH KEBANGSAAN KAMPUNG JAMBU,Rendah,SK,PERAK,PPD LARUT/MATANG/SELAMA,JALAN RAMBUTAN,34000,TAIPING,100.737220,4.843388
ABA6057,SEKOLAH KEBANGSAAN PERMATANG RAJA,Rendah,SK,PERAK,PPD LARUT/MATANG/SELAMA,JALAN SEKOLAH,34900,PANTAI REMIS,100.666809,4.543181
ABA6058,SEKOLAH KEBANGSAAN TAMAN PANGLIMA,Rendah,SK,PERAK,PPD LARUT/MATANG/SELAMA,ASAM KUMBANG,34000,TAIPING,100.721700,4.873325
ABA6059,SEKOLAH KEBANGSAAN TAMAN JANA,Rendah,SK,PERAK,PPD LARUT/MATANG/SELAMA,JALAN JANA MULIA 5,34600,KAMUNTING,100.738290,4.890324
ABA6060,SEKOLAH KEBANGSAAN KAMPUNG BOYAN,Rendah,SK,PERAK,PPD LARUT/MATANG/SELAMA,KAMPUNG BOYAN,34000,TAIPING,100.718383,4.842629
ABA6061,SEKOLAH KEBANGSAAN TAMAN PALMA,Rendah,SK,PERAK,PPD LARUT/MATANG/SELAMA,"LORONG PG/2, TAMAN PALMA",34600,KAMUNTING,100.713692,4.881327
ABA7001,SEKOLAH KEBANGSAAN KEROH,Rendah,SK,PERAK,PPD HULU PERAK,"605, JALAN TASEK",33100,PENGKALAN HULU,100.998206,5.705607
ABA7002,SEKOLAH KEBANGSAAN KUAK HULU,Rendah,SK,PERAK,PPD HULU PERAK,KAMPUNG KUAK HULU,33100,PENGKALAN HULU,100.987489,5.730804
ABA7003,SEKOLAH KEBANGSAAN KUAK LUAR,Rendah,SK,PERAK,PPD HULU PERAK,KG KUAK LUAR,33100,PENGKALAN HULU,100.996371,5.717241
ABA7004,SEKOLAH KEBANGSAAN BEKUAI,Rendah,SK,PERAK,PPD HULU PERAK,D/A KAMPUNG SELARONG,33100,PENGKALAN HULU,100.987971,5.687461
ABA7005,SEKOLAH KEBANGSAAN TASEK,Rendah,SK,PERAK,PPD HULU PERAK,KAMPUNG TASEK,33100,PENGKALAN HULU,100.974709,5.665236
ABA7006,SEKOLAH KEBANGSAAN KLIAN INTAN,Rendah,SK,PERAK,PPD HULU PERAK,JALAN BESAR,33200,KLIAN INTAN,101.024682,5.634518
ABA7007,SEKOLAH KEBANGSAAN AYER PANAS,Rendah,SK,PERAK,PPD HULU PERAK,JALAN BETONG,33100,PENGKALAN HULU,101.014704,5.725381
ABA7008,SEKOLAH KEBANGSAAN LENGGONG,Rendah,SK,PERAK,PPD HULU PERAK,JALAN ALANG ISKANDAR,33400,LENGGONG,100.968858,5.112533
ABA7009,SEKOLAH KEBANGSAAN GELOK,Rendah,SK,PERAK,PPD HULU PERAK,KAMPONG GELOK,33400,LENGGONG,100.988591,5.128089
ABA7010,SEKOLAH KEBANGSAAN SUMPITAN,Rendah,SK,PERAK,PPD HULU PERAK,KG. SUMPITAN,33420,LENGGONG,100.994723,5.164726
ABA7011,SEKOLAH KEBANGSAAN BUKIT SAPI,Rendah,SK,PERAK,PPD HULU PERAK,KG BUKIT SAPI,33400,LENGGONG,101.035026,5.137456
ABA7012,SEKOLAH KEBANGSAAN TEMELONG,Rendah,SK,PERAK,PPD HULU PERAK,KG TEMELONG,33400,LENGGONG,100.993061,5.114344
ABA7013,SEKOLAH KEBANGSAAN CHEPOR,Rendah,SK,PERAK,PPD HULU PERAK,KG CHEPOR,33400,LENGGONG,100.999832,5.086765
ABA7014,SEKOLAH KEBANGSAAN BANGGOL BELIMBING,Rendah,SK,PERAK,PPD HULU PERAK,KG BANGGOL BELIMBING,33400,LENGGONG,100.960585,5.081403
ABA7015,SEKOLAH KEBANGSAAN LUBOK KAWAH,Rendah,SK,PERAK,PPD HULU PERAK,KG KOTA TAMPAN,33400,LENGGONG,100.958046,5.054631
ABA7016,SEKOLAH KEBANGSAAN LUAT,Rendah,SK,PERAK,PPD HULU PERAK,KG LUAT,33400,LENGGONG,100.987218,5.043074
ABA7017,SEKOLAH KEBANGSAAN BENG,Rendah,SK,PERAK,PPD HULU PERAK,KAMPUNG BENG,33400,LENGGONG,100.981956,5.015669
ABA7018,SEKOLAH KEBANGSAAN RABAN,Rendah,SK,PERAK,PPD HULU PERAK,KAMPUNG KUAK,33400,LENGGONG,100.934985,4.993268
ABA7019,SEKOLAH KEBANGSAAN SRI ADIKA RAJA,Rendah,SK,PERAK,PPD HULU PERAK,JALAN HAJI MEOR YAHYA,33300,GERIK,101.124326,5.431047
ABA7020,SEKOLAH KEBANGSAAN TAN SRI GHAZALI JAWI,Rendah,SK,PERAK,PPD HULU PERAK,KG. AIR PANAS,33320,GERIK,101.109992,5.396904
ABA7021,SEKOLAH KEBANGSAAN SERI TAWAI,Rendah,SK,PERAK,PPD HULU PERAK,"KAMPUNG TAWAI , JALAN GERIK LENGGONG",33300,GERIK,101.076911,5.388904
ABA7022,SEKOLAH KEBANGSAAN KENAYAT,Rendah,SK,PERAK,PPD HULU PERAK,"KM 18, JALAN GERIK LENGGONG",33300,GERIK,101.038099,5.356697
ABA7023,SEKOLAH KEBANGSAAN KENERING,Rendah,SK,PERAK,PPD HULU PERAK,KG MALAU,33300,GERIK,101.056459,5.280885
ABA7024,SEKOLAH KEBANGSAAN KERUNAI,Rendah,SK,PERAK,PPD HULU PERAK,"JALAN INTAN, KG. KERUNAI",33310,GERIK,101.126806,5.515248
ABA7025,SEKOLAH KEBANGSAAN PLANG,Rendah,SK,PERAK,PPD HULU PERAK,KAMPUNG PLANG,33320,GERIK,101.098947,5.572946
ABA7026,SEKOLAH KEBANGSAAN KAMPONG LALANG,Rendah,SK,PERAK,PPD HULU PERAK,KAMPONG LALANG,33320,GERIK,101.082479,5.596936
ABA7027,SEKOLAH KEBANGSAAN RKT BERSIA,Rendah,SK,PERAK,PPD HULU PERAK,"JALAN KELILING, FELDA BERSIA",33320,GERIK,101.203915,5.473906
ABA7028,SEKOLAH KEBANGSAAN BASIA LAMA,Rendah,SK,PERAK,PPD HULU PERAK,KG BASIA LAMA,33320,GERIK,101.205952,5.444268
ABA7029,SEKOLAH KEBANGSAAN BONGOR,Rendah,SK,PERAK,PPD HULU PERAK,KG BONGOR,33320,GERIK,101.188907,5.499789
ABA7030,SEKOLAH KEBANGSAAN GANDA TEMENGOR,Rendah,SK,PERAK,PPD HULU PERAK,KAMPUNG GANDA TEMENGOR,33300,GERIK,101.145593,5.319721
ABA7031,SEKOLAH KEBANGSAAN (FELDA) PAPULUT,Rendah,SK,PERAK,PPD HULU PERAK,FELDA PAPULUT,33300,GERIK,101.079418,5.310309
ABA7032,SEKOLAH KEBANGSAAN (FELDA) LAWIN UTARA,Rendah,SK,PERAK,PPD HULU PERAK,FELDA LAWIN UTARA,33300,GERIK,101.036702,5.341111
ABA7033,SEKOLAH KEBANGSAAN (FELDA) LAWIN SELATAN,Rendah,SK,PERAK,PPD HULU PERAK,FELDA LAWIN SELATAN,33300,GERIK,101.034215,5.303934
ABA7034,SEKOLAH KEBANGSAAN PAHIT,Rendah,SK,PERAK,PPD HULU PERAK,KAMPUNG PAHIT,33320,GERIK,101.062516,5.601394
ABA7035,SEKOLAH KEBANGSAAN (FELDA) LEPANG NENERING,Rendah,SK,PERAK,PPD HULU PERAK,FELDA LEPANG NENERING,33100,PENGKALAN HULU,101.080802,5.689434
ABA7036,SEKOLAH KEBANGSAAN RPS POS KEMAR,Rendah,K9,PERAK,PPD HULU PERAK,PETI SURAT NO 8  PEJABAT POS GERIK,33300,GERIK,101.397561,5.197158
ABA7037,SEKOLAH KEBANGSAAN RPS BANUN,Rendah,K9,PERAK,PPD HULU PERAK,"PETI SURAT 60, PEJABAT POS GERIK",33300,GERIK,101.414861,5.558584
ABA7038,SEKOLAH KEBANGSAAN RPS DALA,Rendah,SK,PERAK,PPD HULU PERAK,"PETI SURAT 33, PEJABAT  POS GERIK",33300,GERIK,101.179392,5.248873
ABA7039,SEKOLAH KEBANGSAAN SUNGAI TIANG,Rendah,SK,PERAK,PPD HULU PERAK,PETI SURAT NO 13,33300,GERIK,101.444871,5.691656
ABA7040,SEKOLAH KEBANGSAAN BATU 4,Rendah,SK,PERAK,PPD HULU PERAK,"BT 4, JALAN KUALA RUI",33300,GERIK,101.145755,5.452761
ABA8201,SEKOLAH KEBANGSAAN SUNGAI GALAH,Rendah,SK,PERAK,PPD PERAK TENGAH,"KAMPONG SUNGAI GALAH,JALAN TANJONG TUALANG",31800,TANJUNG TUALANG,101.026656,4.251467
ABA8202,SEKOLAH KEBANGSAAN BALUN BIDAI,Rendah,SK,PERAK,PPD PERAK TENGAH,KAMPUNG BALUN BIDAI,36800,KAMPUNG GAJAH,100.992110,4.220530
ABA8203,SEKOLAH KEBANGSAAN TEPUS,Rendah,SK,PERAK,PPD PERAK TENGAH,KAMPUNG TEPUS,32800,PARIT,100.933818,4.528884
ABA8204,SEKOLAH KEBANGSAAN TANJONG BELANJA,Rendah,SK,PERAK,PPD PERAK TENGAH,JALAN TANJONG BELANJA MANONG,32800,PARIT,100.921892,4.508571
ABA8205,SEKOLAH KEBANGSAAN SIMPANG TIGA,Rendah,SK,PERAK,PPD PERAK TENGAH,SIMPANG TIGA,32800,PARIT,100.865247,4.528300
ABA8206,SEKOLAH KEBANGSAAN BELANJA,Rendah,SK,PERAK,PPD PERAK TENGAH,KAMPUNG BELANJA KIRI,32800,PARIT,100.904559,4.478478
ABA8207,SEKOLAH KEBANGSAAN PASIR GAJAH,Rendah,SK,PERAK,PPD PERAK TENGAH,KG PASIR GAJAH,32800,PARIT,100.899528,4.442942
ABA8208,SEKOLAH KEBANGSAAN LAYANG-LAYANG KIRI,Rendah,SK,PERAK,PPD PERAK TENGAH,JALAN SEKOLAH,32800,PARIT,100.881149,4.402636
ABA8209,SEKOLAH KEBANGSAAN PULAU PADANG,Rendah,SK,PERAK,PPD PERAK TENGAH,KG PULAU PADANG,32600,BOTA,100.892446,4.374792
ABA8210,SEKOLAH KEBANGSAAN BOTA KIRI,Rendah,SK,PERAK,PPD PERAK TENGAH,KG. AJI,32600,BOTA,100.871361,4.356938
ABA8211,SEKOLAH KEBANGSAAN SERIKAYA,Rendah,SK,PERAK,PPD PERAK TENGAH,KG. SERIKAYA,32600,BOTA,100.879783,4.332610
ABA8212,SEKOLAH KEBANGSAAN BAKONG,Rendah,SK,PERAK,PPD PERAK TENGAH,"KAMPUNG KUCHAI, LAMBOR KIRI",32900,LAMBOR,100.893040,4.293903
ABA8213,SEKOLAH KEBANGSAAN LAMBOR KIRI,Rendah,SK,PERAK,PPD PERAK TENGAH,LAMBOR KIRI,32900,LAMBOR KANAN,100.896846,4.271499
ABA8214,SEKOLAH KEBANGSAAN CHANGKAT BANJAR,Rendah,SK,PERAK,PPD PERAK TENGAH,CHANGKAT BANJAR,32800,PARIT,100.887573,4.498897
ABA8215,SEKOLAH KEBANGSAAN TELUK KEPAYANG,Rendah,SK,PERAK,PPD PERAK TENGAH,KG TELOK KEPAYANG,32600,BOTA,100.879256,4.320671
ABA8216,SEKOLAH KEBANGSAAN PARIT,Rendah,SK,PERAK,PPD PERAK TENGAH,PARIT,32800,PARIT,100.912420,4.478843
ABA8217,SEKOLAH KEBANGSAAN LENGKUAS,Rendah,SK,PERAK,PPD PERAK TENGAH,KAMPUNG LENGKUAS,32800,PARIT,100.951648,4.490176
ABA8218,SEKOLAH KEBANGSAAN TELOK PERANG,Rendah,SK,PERAK,PPD PERAK TENGAH,KAMPUNG TELOK PERANG,32800,PARIT,100.913407,4.556645
ABA8219,SEKOLAH KEBANGSAAN CHOPIN,Rendah,SK,PERAK,PPD PERAK TENGAH,KG CHOPIN KANAN,32800,PARIT,100.921661,4.543343
ABA8220,SEKOLAH KEBANGSAAN BUKIT CHUPAK,Rendah,SK,PERAK,PPD PERAK TENGAH,KAMPUNG BUKIT CHUPAK,32800,PARIT,100.906089,4.443610
ABA8221,SEKOLAH KEBANGSAAN LAYANG-LAYANG KANAN,Rendah,SK,PERAK,PPD PERAK TENGAH,"KG BARU, LAYANG-LAYANG KANAN",32800,PARIT,100.888653,4.400418
ABA8222,SEKOLAH KEBANGSAAN CIKGU MIOR SHAHARUDDIN,Rendah,SK,PERAK,PPD PERAK TENGAH,KAMPUNG PADANG TENGGALA,32600,BOTA,100.895267,4.364672
ABA8223,SEKOLAH KEBANGSAAN BOTA KANAN,Rendah,SK,PERAK,PPD PERAK TENGAH,JALAN BESAR BOTA KANAN,32600,BOTA,100.883799,4.348235
ABA8224,SEKOLAH KEBANGSAAN PADANG CHANGKAT,Rendah,SK,PERAK,PPD PERAK TENGAH,KG PADANG CHANGKAT,32600,BOTA,100.907175,4.326583
ABA8225,SEKOLAH KEBANGSAAN LAMBOR KANAN,Rendah,SK,PERAK,PPD PERAK TENGAH,LAMBOR KANAN,32900,LAMBOR KANAN,100.903521,4.268013
ABA8226,SEKOLAH KEBANGSAAN TELOK BAKONG,Rendah,SK,PERAK,PPD PERAK TENGAH,LAMBOR KANAN,32900,LAMBOR KANAN,100.905303,4.297359
ABA8227,SEKOLAH KEBANGSAAN SUNGAI RANGGAM,Rendah,SK,PERAK,PPD PERAK TENGAH,KOTA SETIA,36810,KAMPUNG GAJAH,100.905460,4.039370
ABA8228,SEKOLAH KEBANGSAAN DATO' SAGOR,Rendah,SK,PERAK,PPD PERAK TENGAH,KAMPONG SETIA JALAN TANJUNG TUALANG,36800,KAMPONG GAJAH,100.950669,4.192851
ABA8229,SEKOLAH KEBANGSAAN SELAT PULAU,Rendah,SK,PERAK,PPD PERAK TENGAH,KAMPUNG SELAT PULAU,36800,KAMPONG GAJAH,100.926349,4.180690
ABA8230,SEKOLAH KEBANGSAAN TANJONG BIDARA,Rendah,SK,PERAK,PPD PERAK TENGAH,KAMPONG TANJONG BIDARA,36800,KAMPONG GAJAH,100.912243,4.206250
ABA8231,SEKOLAH KEBANGSAAN RAJA CHULAN,Rendah,SK,PERAK,PPD PERAK TENGAH,PULAU TIGA,36800,KAMPONG GAJAH,100.925718,4.227330
ABA8232,SEKOLAH KEBANGSAAN PULAU TIGA KIRI,Rendah,SK,PERAK,PPD PERAK TENGAH,KAMPONG PULAU TIGA KIRI,36800,KAMPONG GAJAH,100.917785,4.225747
ABA8233,SEKOLAH KEBANGSAAN TOH PADUKA RAJA,Rendah,SK,PERAK,PPD PERAK TENGAH,TELOK SAREH,36800,KAMPUNG GAJAH,100.916432,4.245757
ABA8234,SEKOLAH KEBANGSAAN TOK PELITA,Rendah,SK,PERAK,PPD PERAK TENGAH,PASIR SALAK,36800,KAMPONG GAJAH,100.947933,4.171957
ABA8235,SEKOLAH KEBANGSAAN PULAU JUAR,Rendah,SK,PERAK,PPD PERAK TENGAH,KAMPUNG  PULAU JUAR,36800,KAMPONG GAJAH,100.974438,4.158354
ABA8236,SEKOLAH KEBANGSAAN BANDAR TUA,Rendah,SK,PERAK,PPD PERAK TENGAH,KAMPUNG BANDAR TUA,36800,KAMPUNG GAJAH,100.973219,4.148407
ABA8237,SEKOLAH KEBANGSAAN PASIR PANJANG ULU,Rendah,SK,PERAK,PPD PERAK TENGAH,JALAN KUALA KINTA,36800,KAMPONG GAJAH,100.990910,4.143734
ABA8238,SEKOLAH KEBANGSAAN SUAK PADI,Rendah,SK,PERAK,PPD PERAK TENGAH,KG SUAK PADI,32600,BOTA,100.930451,4.323669
ABA8239,SEKOLAH KEBANGSAAN PASIR KUBU,Rendah,SK,PERAK,PPD PERAK TENGAH,"KG. PASIR KUBU, PULAU TIGA KIRI",36800,KAMPUNG GAJAH,100.905326,4.245196
ABA8241,SEKOLAH KEBANGSAAN BANDAR,Rendah,SK,PERAK,PPD PERAK TENGAH,KG. BANDAR,36800,KAMPUNG GAJAH,101.006245,4.093751
ABA8242,SEKOLAH KEBANGSAAN SUNGAI BESAR,Rendah,SK,PERAK,PPD PERAK TENGAH,KOTA SETIA,36810,KAMPONG GAJAH,100.872335,3.981150
ABA8243,SEKOLAH KEBANGSAAN KOTA SETIA,Rendah,SK,PERAK,PPD PERAK TENGAH,KOTA SETIA,36000,TELUK INTAN,100.871940,4.021683
ABA8244,SEKOLAH KEBANGSAAN SEBERANG PERAK,Rendah,SK,PERAK,PPD PERAK TENGAH,FELCRA SEBERANG PERAK,36000,TELUK INTAN,100.951957,4.101590
ABA8245,SEKOLAH KEBANGSAAN SRI CHANGKAT,Rendah,SK,PERAK,PPD PERAK TENGAH,KAMPUNG TERSUSUN AIR KUNING,31800,TANJUNG TUALANG,101.074058,4.187479
ABA8246,SEKOLAH KEBANGSAAN SERI CEMPAKA,Rendah,SK,PERAK,PPD PERAK TENGAH,BANDAR SEBERANG PERAK,36800,KAMPONG GAJAH,100.900244,4.133668
ABA8247,SEKOLAH KEBANGSAAN CHENDERONG KELUBI,Rendah,SK,PERAK,PPD PERAK TENGAH,KG.CHENDERONG KELUBI,31800,TANJUNG TUALANG,101.077915,4.219349
ABA8248,SEKOLAH KEBANGSAAN SUNGAI PERAH,Rendah,SK,PERAK,PPD PERAK TENGAH,KAMPUNG SUNGAI PERAH,32800,PARIT,100.950584,4.546193
ABA8249,SEKOLAH KEBANGSAAN CHANGKAT LADA 2,Rendah,SK,PERAK,PPD PERAK TENGAH,BANDAR SEBERANG PERAK,36800,KAMPONG GAJAH,100.893326,4.139353
ABA8250,SEKOLAH KEBANGSAAN TITI GANTONG,Rendah,SK,PERAK,PPD PERAK TENGAH,TITI GANTONG,32600,BOTA,100.835257,4.361255
ABA8251,SEKOLAH KEBANGSAAN SERI ISKANDAR,Rendah,SK,PERAK,PPD PERAK TENGAH,JALAN IPOH LUMUT,32610,BANDAR BARU SERI ISKANDAR,100.953847,4.366040
ABA8252,SEKOLAH KEBANGSAAN FELCRA NASARUDDIN,Rendah,SK,PERAK,PPD PERAK TENGAH,"KM 37, JALAN TRONOH",32600,BOTA,100.952618,4.322522
ABA8253,SEKOLAH KEBANGSAAN CHANGKAT LADA 3,Rendah,SK,PERAK,PPD PERAK TENGAH,BANDAR SEBERANG PERAK,36800,KAMPONG GAJAH,100.903274,4.127610
ABA8254,SEKOLAH KEBANGSAAN ISKANDAR PERDANA,Rendah,SK,PERAK,PPD PERAK TENGAH,BANDAR BARU SERI ISKANDAR,32610,BANDAR BARU SERI ISKANDAR,100.965071,4.351259
ABA9001,SEKOLAH KEBANGSAAN GOPENG,Rendah,SK,PERAK,PPD KINTA SELATAN,TAMAN GOPENG BARU,31600,GOPENG,101.163929,4.465621
ABA9002,SEKOLAH KEBANGSAAN GUNUNG PANJANG,Rendah,SK,PERAK,PPD KINTA SELATAN,KG. GUNUNG PANJANG,31600,GOPENG,101.166088,4.429280
ABA9003,SEKOLAH KEBANGSAAN KOTA BAHARU,Rendah,SK,PERAK,PPD KINTA SELATAN,JALAN DATUK SETIA,31610,GOPENG,101.077828,4.398052
ABA9004,SEKOLAH KEBANGSAAN TUALANG SEKAH,Rendah,SK,PERAK,PPD KINTA SELATAN,JALAN MALIM NAWAR,31700,MALIM NAWAR,101.127788,4.363245
ABA9005,SEKOLAH KEBANGSAAN MALIM NAWAR,Rendah,SK,PERAK,PPD KINTA SELATAN,KAMPUNG CHANGKAT BARU,31700,MALIM NAWAR,101.107776,4.349413
ABA9006,SEKOLAH KEBANGSAAN KUALA DIPANG,Rendah,SK,PERAK,PPD KINTA SELATAN,KUALA DIPANG,31850,JERAM,101.159715,4.382029
ABA9007,SEKOLAH KEBANGSAAN SAHOM,Rendah,SK,PERAK,PPD KINTA SELATAN,JLN CHENDERIANG,31920,KAMPAR,101.226500,4.369421
ABA9008,SEKOLAH KEBANGSAAN KAMPAR,Rendah,SK,PERAK,PPD KINTA SELATAN,192 JLN BUKIT,31900,KAMPAR,101.151567,4.316724
ABA9009,SEKOLAH KEBANGSAAN BUKIT PEKAN,Rendah,SK,PERAK,PPD KINTA SELATAN,JALAN KG. BUKIT PEKAN,31910,KAMPAR,101.085891,4.257469
ABA9010,SEKOLAH KEBANGSAAN AIR HITAM LABU,Rendah,SK,PERAK,PPD KINTA SELATAN,WAKIL POS TRONOH MINES,31910,KAMPAR,101.116290,4.278687
ABA9011,SEKOLAH KEBANGSAAN SUNGAI ITEK,Rendah,SK,PERAK,PPD KINTA SELATAN,JALAN DUSUN SERIBU,31600,GOPENG,101.183721,4.456085
ABA9012,SEKOLAH KEBANGSAAN ULU GERUNTUM,Rendah,SK,PERAK,PPD KINTA SELATAN,JALAN ULU GERUNTUM,31600,GOPENG,101.221245,4.465366
ABA9014,SEKOLAH KEBANGSAAN POS DIPANG,Rendah,SK,PERAK,PPD KINTA SELATAN,SAHOM,31920,KAMPAR,101.247328,4.371563
ABA9015,SEKOLAH KEBANGSAAN SENTOSA,Rendah,SK,PERAK,PPD KINTA SELATAN,TAMAN BANDAR BARU,31900,KAMPAR,101.139492,4.328407
ABA9016,SEKOLAH KEBANGSAAN CHANGKAT TUALANG,Rendah,SK,PERAK,PPD KINTA SELATAN,"KG. CHANGKAT TUALANG, KOTA BAHRU",31610,GOPENG,101.087784,4.425210
ABAA001,SEKOLAH KEBANGSAAN AMINUDIN BAKI,Rendah,SK,PERAK,PPD MUALLIM,JALAN STESEN,35800,SLIM RIVER,101.403080,3.827184
ABAA002,SEKOLAH KEBANGSAAN BALUN,Rendah,SK,PERAK,PPD MUALLIM,KG. BALUN,35820,SLIM RIVER,101.423899,3.827905
ABAA003,SEKOLAH KEBANGSAAN DATUK NAN KAYA,Rendah,SK,PERAK,PPD MUALLIM,KAMPONG KELAWAR,35900,TANJONG MALIM,101.482384,3.710291
ABAA004,SEKOLAH KEBANGSAAN ULU SLIM,Rendah,SK,PERAK,PPD MUALLIM,KG. ULU SLIM,35800,SLIM RIVER,101.497456,3.897424
ABAA005,SEKOLAH KEBANGSAAN KUALA SLIM,Rendah,SK,PERAK,PPD MUALLIM,KG. KUALA SLIM,35800,SLIM RIVER,101.362586,3.807985
ABAA006,SEKOLAH KEBANGSAAN TANJONG MALIM,Rendah,SK,PERAK,PPD MUALLIM,JALAN KETOYONG,35900,TANJONG MALIM,101.514755,3.694305
ABAA007,SEKOLAH KEBANGSAAN BEHRANG,Rendah,SK,PERAK,PPD MUALLIM,"BATU 8, BEHRANG ULU",35950,BEHRANG STESEN,101.499392,3.777975
ABAA008,SEKOLAH KEBANGSAAN SLIM VILLAGE,Rendah,SK,PERAK,PPD MUALLIM,KAMPUNG SLIM,35800,SLIM RIVER,101.472098,3.849851
ABAA009,SEKOLAH KEBANGSAAN DATO KAMARUDDIN,Rendah,SK,PERAK,PPD MUALLIM,JALAN KAMPUNG PAUH,35950,BEHRANG STESEN,101.452351,3.747120
ABAA010,SEKOLAH KEBANGSAAN SUNGAI BEHRANG,Rendah,SK,PERAK,PPD MUALLIM,FELDA SUNGAI BEHRANG,35820,SLIM RIVER,101.459493,3.779743
ABAA011,SEKOLAH KEBANGSAAN POS BERSIH,Rendah,SK,PERAK,PPD MUALLIM,ULU SLIM,35800,SLIM RIVER,101.508109,3.932278
ABAA012,SEKOLAH KEBANGSAAN POS TENAU,Rendah,SK,PERAK,PPD MUALLIM,ULU SLIM,35800,SLIM RIVER,101.540034,4.071100
ABAA013,SEKOLAH KEBANGSAAN PROTON CITY,Rendah,SK,PERAK,PPD MUALLIM,BANDAR PROTON,35900,TANJONG MALIM,101.537677,3.744439
ABAA014,SEKOLAH KEBANGSAAN BANDAR BEHRANG 2020,Rendah,SK,PERAK,PPD MUALLIM,JALAN WAWASAN MESRA,35900,TANJONG MALIM,101.478889,3.729667
ABAA015,SEKOLAH KEBANGSAAN TROLAK TIMUR,Rendah,SK,PERAK,PPD MUALLIM,FELDA TROLAK TIMUR,35700,TROLAK,101.415223,3.939607
ABAA016,SEKOLAH KEBANGSAAN BESOUT 5,Rendah,SK,PERAK,PPD MUALLIM,FELDA GUNUNG BESOUT 5,35600,SUNGKAI,101.296670,3.717987
ABAA017,SEKOLAH KEBANGSAAN BESOUT 4,Rendah,SK,PERAK,PPD MUALLIM,FELDA BESOUT 4,35600,SUNGKAI,101.275936,3.782196
ABAB001,SEKOLAH KEBANGSAAN TAPAK SEMENANG,Rendah,SK,PERAK,PPD BAGAN DATUK,"KAMPONG TAPAK SEMENANG, MUKIM TELUK BHARU",36000,TELUK INTAN,100.948417,3.953640
ABAB002,SEKOLAH KEBANGSAAN SERI BARU,Rendah,SK,PERAK,PPD BAGAN DATUK,KAMPUNG LADANG BARU,36000,TELUK INTAN,100.915120,3.965381
ABAB003,SEKOLAH KEBANGSAAN SUNGAI BETUL,Rendah,SK,PERAK,PPD BAGAN DATUK,"SUNGAI BETUL, JALAN RUNGKUP KECIL KE BAGAN DATOH",36100,BAGAN DATOH,100.716000,3.978967
ABAB004,SEKOLAH KEBANGSAAN SUNGAI BULOH,Rendah,SK,PERAK,PPD BAGAN DATUK,BATU 9,36400,HUTAN MELINTANG,100.950324,3.921728
ABAB005,SEKOLAH KEBANGSAAN BAGAN PASIR,Rendah,SK,PERAK,PPD BAGAN DATUK,KM32 JALAN BAGAN DATOH,36200,SELEKOH,100.816883,3.889383
ABAB006,SEKOLAH KEBANGSAAN SUNGAI SUMUN,Rendah,SK,PERAK,PPD BAGAN DATUK,"PARIT 7, KAMPUNG SUNGAI SUMUN",36300,SUNGAI SUMUN,100.853050,3.876658
ABAB007,SEKOLAH KEBANGSAAN SUNGAI PULAU,Rendah,SK,PERAK,PPD BAGAN DATUK,SUNGAI PULAU,36400,HUTAN MELINTANG,100.884384,3.867839
ABAB008,SEKOLAH KEBANGSAAN TANJONG BAYAN,Rendah,SK,PERAK,PPD BAGAN DATUK,PARIT 23  TANJONG BAYAN,36400,HUTAN MELINTANG,100.910104,3.880288
ABAB009,SEKOLAH KEBANGSAAN HUTAN MELINTANG,Rendah,SK,PERAK,PPD BAGAN DATUK,JALAN BESAR HUTAN MELINTANG,36400,HUTAN MELINTANG,100.936207,3.879889
ABAB010,SEKOLAH KEBANGSAAN KAMPUNG BAHARU,Rendah,SK,PERAK,PPD BAGAN DATUK,JALAN BATU 16  SUNGAI DULANG,36300,SUNGAI SUMUN,100.876850,3.910154
ABAB011,SEKOLAH KEBANGSAAN TANAH LALANG,Rendah,SK,PERAK,PPD BAGAN DATUK,KAMPUNG TANAH LALANG,36100,BAGAN DATOH,100.858837,3.949882
ABAB012,SEKOLAH KEBANGSAAN SUNGAI DULANG DALAM,Rendah,SK,PERAK,PPD BAGAN DATUK,JALAN HAJI ABU BAKAR,36300,SUNGAI SUMUN,100.885850,3.936629
ABAB013,SEKOLAH KEBANGSAAN TEBING REBAK,Rendah,SK,PERAK,PPD BAGAN DATUK,KG. TEBING REBAK,36000,TELUK INTAN,100.901276,3.951107
ABAB014,SEKOLAH KEBANGSAAN TELUK BULOH,Rendah,SK,PERAK,PPD BAGAN DATUK,JALAN KG KOTA OFF JALAN SABAK BERNAM,36400,HUTAN MELINTANG,100.981297,3.811406
ABAB015,SEKOLAH KEBANGSAAN SUNGAI KELI,Rendah,SK,PERAK,PPD BAGAN DATUK,KG. SUNGAI KELI,36400,HUTAN MELINTANG,100.979025,3.775066
ABAB016,SEKOLAH KEBANGSAAN SUNGAI SAMAK,Rendah,SK,PERAK,PPD BAGAN DATUK,KAMPUNG SUNGAI SAMAK,36400,HUTAN MELINTANG,101.087685,3.785539
ABAB017,SEKOLAH KEBANGSAAN ULU BERNAM,Rendah,SK,PERAK,PPD BAGAN DATUK,LADANG ULU BERNAM,36500,ULU BERNAM,101.148988,3.744721
ABAB018,SEKOLAH KEBANGSAAN BAGAN DATOH,Rendah,SK,PERAK,PPD BAGAN DATUK,"KM 1, JALAN BAGAN DATOH",36100,BAGAN DATOH,100.787367,3.983858
ABAB019,SEKOLAH KEBANGSAAN SUNGAI NIPAH,Rendah,SK,PERAK,PPD BAGAN DATUK,KG SUNGAI NIPAH BAROH,36100,BAGAN DATOH,100.744670,3.982853
ABAB020,SEKOLAH KEBANGSAAN MATANG KUNDA,Rendah,SK,PERAK,PPD BAGAN DATUK,BT 26 JLN BGN DATOH BLKG SMA IRSYADIAH,36100,BAGAN DATOH,100.765953,3.959667
ABAB021,SEKOLAH KEBANGSAAN SUNGAI PERGAM,Rendah,SK,PERAK,PPD BAGAN DATUK,"KAMPUNG PARIT 5, SUNGAI PERGAM",36100,BAGAN DATOH,100.805833,3.959995
ABAB022,SEKOLAH KEBANGSAAN SIMPANG TIGA,Rendah,SK,PERAK,PPD BAGAN DATUK,JALAN BAGAN DATOH,36100,BAGAN DATOH,100.777534,3.933373
ABAB023,SEKOLAH KEBANGSAAN SUNGAI BALAI,Rendah,SK,PERAK,PPD BAGAN DATUK,JALAN RUNGKUP,36200,SELEKOH,100.731583,3.951598
ABAB024,SEKOLAH KEBANGSAAN RUNGKUP,Rendah,SK,PERAK,PPD BAGAN DATUK,"SIMPANG 4, JALAN RUNGKUP",36200,SELEKOH,100.714878,3.948831
ABAB025,SEKOLAH KEBANGSAAN SUNGAI TIANG BAROH,Rendah,SK,PERAK,PPD BAGAN DATUK,"KAMPUNG SUNGAI TIANG BAROH, JALAN SG TG BAROH",36200,SELEKOH,100.718833,3.905856
ABAB026,SEKOLAH KEBANGSAAN SUNGAI TIANG DARAT,Rendah,SK,PERAK,PPD BAGAN DATUK,JALAN BARU SUNGAI TIANG,36200,SELEKOH,100.748207,3.916192
ABAB027,SEKOLAH KEBANGSAAN SELEKOH,Rendah,SK,PERAK,PPD BAGAN DATUK,"BATU 23, JALAN BAGAN DATOH",36200,SELEKOH,100.775047,3.910233
ABAB028,SEKOLAH KEBANGSAAN SUNGAI BATANG,Rendah,SK,PERAK,PPD BAGAN DATUK,KG.SG.BATANG,36200,SELEKOH,100.788351,3.879985
ABAB029,SEKOLAH KEBANGSAAN SUNGAI HAJI MUHAMMAD,Rendah,SK,PERAK,PPD BAGAN DATUK,KM 2 JLN SG HAJI MUHAMMAD,36200,SELEKOH,100.773485,3.891243
ABAB030,SEKOLAH KEBANGSAAN SIMPANG EMPAT,Rendah,SK,PERAK,PPD BAGAN DATUK,JALAN BAGAN DATOH,36400,HUTAN MELINTANG,100.927127,3.893352
ABB0045,SEKOLAH KEBANGSAAN SATU,Rendah,SK,PERAK,PPD BATANG PADANG,JALAN HOSPITAL,35000,TAPAH,101.260473,4.200312
ABB0046,SEKOLAH KEBANGSAAN DATUK KELANA,Rendah,SK,PERAK,PPD BATANG PADANG,JALAN PAHANG,35000,TAPAH,101.269086,4.211286
ABB0047,SEKOLAH KEBANGSAAN SERI BIDOR,Rendah,SK,PERAK,PPD BATANG PADANG,JALAN PERSATUAN,35500,BIDOR,101.287405,4.113760
ABB1039,SEKOLAH KEBANGSAAN METHODIST (ACS),Rendah,SK,PERAK,PPD MANJUNG,JALAN LIN CHEN MEI,32000,SITIAWAN,100.701781,4.196389
ABB1040,SEKOLAH KEBANGSAAN METHODIST (ACS),Rendah,SK,PERAK,PPD MANJUNG,JALAN PEGAWAI,32200,LUMUT,100.632564,4.233869
ABB1041,SEKOLAH KEBANGSAAN METHODIST,Rendah,SK,PERAK,PPD MANJUNG,JALAN BESAR,32400,AYER TAWAR,100.762333,4.306503
ABB1042,SEKOLAH KEBANGSAAN CONVENT,Rendah,SK,PERAK,PPD MANJUNG,JALAN RAJA OMAR,32000,SITIAWAN,100.698537,4.208158
ABB1043,SEKOLAH KEBANGSAAN SIMPANG EMPAT,Rendah,SK,PERAK,PPD MANJUNG,"D/A SMK AHMAD BOESTAMAM, JALAN HAJI MOHD ALI",32000,SITIAWAN,100.694910,4.220350
ABB1044,SEKOLAH KEBANGSAAN ST. FRANCIS,Rendah,SK,PERAK,PPD MANJUNG,JALAN RAJA OMAR,32000,SITIAWAN,100.696827,4.207095
ABB1045,SEKOLAH KEBANGSAAN GANGGA,Rendah,SK,PERAK,PPD MANJUNG,JALAN PARIT BERUAS,32700,BERUAS,100.785445,4.497233
ABB2075,SEKOLAH KEBANGSAAN SRI KINTA,Rendah,SK,PERAK,PPD KINTA UTARA,JALAN HOSPITAL,30450,IPOH,101.098507,4.602529
ABB2076,SEKOLAH KEBANGSAAN CATOR AVENUE,Rendah,SK,PERAK,PPD KINTA UTARA,LEBUH CATOR,30450,IPOH,101.090094,4.605052
ABB2077,SEKOLAH KEBANGSAAN RAJA DIHILIR EKRAM,Rendah,SK,PERAK,PPD KINTA UTARA,JALAN PASIR PUTEH,31650,IPOH,101.080213,4.579110
ABB2078,SEKOLAH KEBANGSAAN METHODIST (ACS),Rendah,SK,PERAK,PPD KINTA UTARA,JALAN LAHAT,30200,IPOH,101.071940,4.591784
ABB2079,SEKOLAH KEBANGSAAN HO SENG ONG METHODIST,Rendah,SK,PERAK,PPD KINTA UTARA,TAMAN CANNING,31400,IPOH,101.114456,4.603513
ABB2080,SEKOLAH KEBANGSAAN ST. MICHAEL,Rendah,SK,PERAK,PPD KINTA UTARA,JLN KOMPLEKS ISLAM,30000,IPOH,101.077637,4.601903
ABB2082,SEKOLAH KEBANGSAAN LA SALLE,Rendah,SK,PERAK,PPD KINTA UTARA,"LEBUH SUNGAI SENAM, TAMAN IPOH",31400,IPOH,101.109027,4.607649
ABB2083,SEKOLAH KEBANGSAAN RAJA PEREMPUAN,Rendah,SK,PERAK,PPD KINTA UTARA,JALAN CHUNG THYE PHIN,30250,IPOH,101.086469,4.586986
ABB2084,SEKOLAH KEBANGSAAN PEREMPUAN METHODIST,Rendah,SK,PERAK,PPD KINTA UTARA,"69, JALAN CHAMBERLAIN HULU",30250,IPOH,101.085120,4.587609
ABB2085,SEKOLAH KEBANGSAAN CONVENT,Rendah,SK,PERAK,PPD KINTA UTARA,JALAN CHAMBERLAIN HULU,30250,IPOH,101.087571,4.587166
ABB2086,SEKOLAH KEBANGSAAN MARIAN CONVENT,Rendah,SK,PERAK,PPD KINTA UTARA,JALAN RAJA DIHILIR,30350,IPOH,101.115388,4.598185
ABB2088,SEKOLAH KEBANGSAAN TARCISIAN CONVENT,Rendah,SK,PERAK,PPD KINTA UTARA,JALAN ABDUL MANAP,30100,IPOH,101.070967,4.609578
ABB2089,SEKOLAH KEBANGSAAN CORONATION PARK,Rendah,SK,PERAK,PPD KINTA UTARA,TAMAN DR SEENIVASAGAM,30300,IPOH,101.083495,4.602267
ABB2090,SEKOLAH KEBANGSAAN SULTAN YUSSUF,Rendah,SK,PERAK,PPD KINTA SELATAN,JALAN PUSING,31007,BATU GAJAH,101.032937,4.486279
ABB2091,SEKOLAH KEBANGSAAN ST. BERNADETTE'S CONVENT,Rendah,SK,PERAK,PPD KINTA SELATAN,JALAN PUSING,31000,BATU GAJAH,101.035571,4.484707
ABB2092,SEKOLAH KEBANGSAAN PUSING,Rendah,SK,PERAK,PPD KINTA UTARA,JALAN LAHAT,31550,PUSING,101.011450,4.495819
ABB2093,SEKOLAH KEBANGSAAN SERI TRONOH,Rendah,SK,PERAK,PPD KINTA SELATAN,JALAN BESAR,31750,TERONOH,100.984953,4.421605
ABB2098,SEKOLAH KEBANGSAAN ST. PAUL,Rendah,SK,PERAK,PPD KINTA SELATAN,JALAN TANJONG TUALANG,31800,TANJONG TUALANG,101.058683,4.326527
ABB2099,SEKOLAH KEBANGSAAN METHODIST,Rendah,SK,PERAK,PPD KINTA UTARA,JALAN CHEMOR,31250,TANJONG RAMBUTAN,101.158172,4.671612
ABB3046,SEKOLAH KEBANGSAAN METHODIST PARIT BUNTAR,Rendah,SK,PERAK,PPD KRIAN,JALAN SEKOLAH,34200,PARIT BUNTAR,100.479012,5.128824
ABB3047,SEKOLAH KEBANGSAAN JALAN MATANG BULUH,Rendah,SK,PERAK,PPD KRIAN,JALAN MATANG BULUH,34300,BAGAN SERAI,100.543245,5.011691
ABB4086,SEKOLAH KEBANGSAAN CLIFFORD,Rendah,SK,PERAK,PPD KUALA KANGSAR,JALAN RAJA PEREMPUAN TAAYAH,33007,KUALA KANGSAR,100.936758,4.780424
ABB4087,SEKOLAH KEBANGSAAN DATIN KHADIJAH,Rendah,SK,PERAK,PPD KUALA KANGSAR,JLN RAJA PEREMPUAN TAAYAH,33007,KUALA KANGSAR,100.937552,4.781614
ABB4088,SEKOLAH KEBANGSAAN METHODIST,Rendah,SK,PERAK,PPD KUALA KANGSAR,JALAN BESAR,31100,SUNGAI SIPUT(U),101.085927,4.813555
ABB5075,SEKOLAH KEBANGSAAN SULTAN ABDUL AZIZ,Rendah,SK,PERAK,PPD HILIR PERAK,JALAN PADANG TEMBAK,36000,TELUK INTAN,101.017377,3.999505
ABB5076,SEKOLAH KEBANGSAAN HORLEY METHODIST,Rendah,SK,PERAK,PPD HILIR PERAK,JALAN BANDAR,36000,TELUK INTAN,101.020767,4.027760
ABB5077,SEKOLAH KEBANGSAAN ST ANTHONY,Rendah,SK,PERAK,PPD HILIR PERAK,JALAN SUNGAI NIBONG,36000,TELUK INTAN,101.030933,4.022944
ABB5078,SEKOLAH KEBANGSAAN CONVENT,Rendah,SK,PERAK,PPD HILIR PERAK,JALAN SUNGAI NIBONG,36000,TELUK INTAN,101.030731,4.021954
ABB5079,SEKOLAH KEBANGSAAN PEREMPUAN METHODIST,Rendah,SK,PERAK,PPD HILIR PERAK,JALAN CHANGKAT JONG,36000,TELUK INTAN,101.030442,4.012374
ABB6062,SEKOLAH KEBANGSAAN KING EDWARD VII (1),Rendah,SK,PERAK,PPD LARUT/MATANG/SELAMA,JALAN STESEN,34000,TAIPING,100.738981,4.854196
ABB6063,SEKOLAH KEBANGSAAN KING EDWARD VII (2),Rendah,SK,PERAK,PPD LARUT/MATANG/SELAMA,JALAN LUMBA KUDA,34000,TAIPING,100.754245,4.863092
ABB6064,SEKOLAH KEBANGSAAN ST GEORGE 1,Rendah,SK,PERAK,PPD LARUT/MATANG/SELAMA,NO 2 JALAN MUZIUM HULU,34000,TAIPING,100.735480,4.854054
ABB6066,SEKOLAH KEBANGSAAN (P) TREACHER METHODIST,Rendah,SK,PERAK,PPD LARUT/MATANG/SELAMA,JALAN LUMBA KUDA,34000,TAIPING,100.753510,4.862765
ABB6067,SEKOLAH KEBANGSAAN KLIAN PAUH,Rendah,SK,PERAK,PPD LARUT/MATANG/SELAMA,JALAN LUMBA KUDA,34000,TAIPING,100.750321,4.862484
ABB6068,SEKOLAH KEBANGSAAN CONVENT KOTA,Rendah,SK,PERAK,PPD LARUT/MATANG/SELAMA,JALAN CONVENT,34000,TAIPING,100.737638,4.847649
ABB6069,SEKOLAH KEBANGSAAN CONVENT AULONG,Rendah,SK,PERAK,PPD LARUT/MATANG/SELAMA,JALAN PADANG,34000,TAIPING,100.712026,4.854089
ABB6070,SEKOLAH KEBANGSAAN ALL SAINTS',Rendah,SK,PERAK,PPD LARUT/MATANG/SELAMA,JALAN KAMUNTING,34600,KAMUNTING,100.731399,4.888107
ABB6071,SEKOLAH KEBANGSAAN SELAMA,Rendah,SK,PERAK,PPD LARUT/MATANG/SELAMA,JALAN MENTERI,34100,SELAMA,100.695928,5.220160
ABB6072,SEKOLAH KEBANGSAAN BATU KURAU,Rendah,SK,PERAK,PPD LARUT/MATANG/SELAMA,JALAN BESAR BATU KURAU,34500,BATU KURAU,100.796292,4.974720
ABB6073,SEKOLAH KEBANGSAAN METHODIST,Rendah,SK,PERAK,PPD LARUT/MATANG/SELAMA,JALAN POKOK ASSAM,34000,TAIPING,100.742380,4.835213
ABB7034,SEKOLAH KEBANGSAAN MAHKOTA SARI,Rendah,SK,PERAK,PPD HULU PERAK,JALAN HAJI MEOR YAHYA,33300,GERIK,101.124977,5.430325
ABB7035,SEKOLAH KEBANGSAAN BUKIT BALAI,Rendah,SK,PERAK,PPD HULU PERAK,KG SIRA,33400,LENGGONG,100.965121,5.109142
ABB8301,SEKOLAH KEBANGSAAN ISKANDAR SHAH,Rendah,SK,PERAK,PPD PERAK TENGAH,JALAN SIPUTEH,32800,PARIT,100.911656,4.475098
ABB9001,SEKOLAH KEBANGSAAN GOPENG,Rendah,SK,PERAK,PPD KINTA SELATAN,"JALAN ILMU, KOPISAN BARU",31600,GOPENG,101.162793,4.461241
ABB9002,SEKOLAH KEBANGSAAN METHODIST (ACS),Rendah,SK,PERAK,PPD KINTA SELATAN,"1, JALAN KUALA DIPANG",31900,KAMPAR,101.152964,4.316774
ABB9003,SEKOLAH KEBANGSAAN DE LA SALLE,Rendah,SK,PERAK,PPD KINTA SELATAN,JALAN ISKANDAR,31900,KAMPAR,101.161411,4.299086
ABB9004,SEKOLAH KEBANGSAAN METHODIST,Rendah,SK,PERAK,PPD KINTA SELATAN,JALAN TANJONG TUALANG,31700,MALIM NAWAR,101.108534,4.346889
ABBA001,SEKOLAH KEBANGSAAN SLIM RIVER,Rendah,SK,PERAK,PPD MUALLIM,JALAN KELAB SUKAN,35800,SLIM RIVER,101.404382,3.834282
ABBA002,SEKOLAH KEBANGSAAN METHODIST,Rendah,SK,PERAK,PPD MUALLIM,JALAN SLIM,35900,TANJONG MALIM,101.521715,3.684934
ABBB001,SEKOLAH KEBANGSAAN KHIR JOHARI,Rendah,SK,PERAK,PPD BAGAN DATUK,"BATU 17, SUNGAI SUMUN",36300,TELUK INTAN,100.851219,3.890900
ABC0050,SEKOLAH JENIS KEBANGSAAN (CINA) PHENG LOK,Rendah,SJKC,PERAK,PPD BATANG PADANG,AIR KUNING,31920,KAMPAR,101.141240,4.187147
ABC0051,SEKOLAH JENIS KEBANGSAAN (CINA) HWA MIN,Rendah,SJKC,PERAK,PPD BATANG PADANG,JALAN STESEN,35350,TEMOH,101.190857,4.241558
ABC0052,SEKOLAH JENIS KEBANGSAAN (CINA) SUNGAI KROH,Rendah,SJKC,PERAK,PPD BATANG PADANG,MAMBANG DI AWAN,31920,KAMPAR,101.140091,4.219440
ABC0053,SEKOLAH JENIS KEBANGSAAN (CINA) CHENDERIANG,Rendah,SJKC,PERAK,PPD BATANG PADANG,"NO.11, JALAN TEMOH",35300,CHENDERIANG,101.237736,4.263583
ABC0054,SEKOLAH JENIS KEBANGSAAN (CINA) KHEUNG WA,Rendah,SJKC,PERAK,PPD BATANG PADANG,"LOT 1255, JALAN BIDOR",35000,TAPAH,101.262552,4.194403
ABC0055,SEKOLAH JENIS KEBANGSAAN (CINA) BUKIT PAGAR,Rendah,SJKC,PERAK,PPD BATANG PADANG,KAMPUNG BARU BUKIT PAGAR,35000,TAPAH,101.267810,4.184930
ABC0056,SEKOLAH JENIS KEBANGSAAN (CINA) PEKAN GETAH,Rendah,SJKC,PERAK,PPD BATANG PADANG,PEKAN GETAH,35400,TAPAH ROAD,101.224180,4.188137
ABC0057,SEKOLAH JENIS KEBANGSAAN (CINA) PHUI CHEN,Rendah,SJKC,PERAK,PPD BATANG PADANG,JALAN CHANGKAT PETAI,35400,TAPAH ROAD,101.190975,4.173431
ABC0058,SEKOLAH JENIS KEBANGSAAN (CINA) KAMPONG PAHANG,Rendah,SJKC,PERAK,PPD BATANG PADANG,JALAN PAHANG,35000,TAPAH,101.275288,4.217173
ABC0059,SEKOLAH JENIS KEBANGSAAN (CINA) HWA LIAN,Rendah,SJKC,PERAK,PPD BATANG PADANG,BANIR,35400,TAPAH ROAD,101.183256,4.210195
ABC0060,SEKOLAH JENIS KEBANGSAAN (CINA) CHOONG HUA (1),Rendah,SJKC,PERAK,PPD BATANG PADANG,JALAN SEKOLAH,35500,BIDOR,101.285125,4.111824
ABC0061,SEKOLAH JENIS KEBANGSAAN (CINA) CHOONG HUA (2),Rendah,SJKC,PERAK,PPD BATANG PADANG,TAMAN BUKIT,35500,BIDOR,101.291122,4.121466
ABC0062,SEKOLAH JENIS KEBANGSAAN (CINA) PIN MIN,Rendah,SJKC,PERAK,PPD BATANG PADANG,BIDOR STESEN,35500,BIDOR,101.266144,4.106452
ABC0063,SEKOLAH JENIS KEBANGSAAN (CINA) KG COLDSTREAM,Rendah,SJKC,PERAK,PPD BATANG PADANG,KAMPONG COLDSTREAM,35500,BIDOR,101.238486,4.046417
ABC0064,SEKOLAH JENIS KEBANGSAAN (CINA) TANAH MAS,Rendah,SJKC,PERAK,PPD BATANG PADANG,KG BARU TANAH MAS,35500,BIDOR,101.266376,4.143810
ABC0065,SEKOLAH JENIS KEBANGSAAN (CINA) PEKAN PASIR,Rendah,SJKC,PERAK,PPD BATANG PADANG,KAMPUNG BARU PEKAN PASIR,35500,BIDOR,101.287085,4.068630
ABC0066,SEKOLAH JENIS KEBANGSAAN (CINA) KUALA BIKAM,Rendah,SJKC,PERAK,PPD BATANG PADANG,KAMPUNG KUALA BIKAM,35500,BIDOR,101.240934,4.022887
ABC0067,SEKOLAH JENIS KEBANGSAAN (CINA) KHAI MENG,Rendah,SJKC,PERAK,PPD BATANG PADANG,SUNGKAI,35600,SUNGKAI,101.310922,3.996935
ABC1046,SEKOLAH JENIS KEBANGSAAN (CINA) HWA LIAN (1),Rendah,SJKC,PERAK,PPD MANJUNG,JALAN PASIR BOGAK,32300,PANGKOR,100.561190,4.212685
ABC1047,SEKOLAH JENIS KEBANGSAAN (CINA) HWA LIAN (2),Rendah,SJKC,PERAK,PPD MANJUNG,SUNGAI PINANG BESAR,32300,PANGKOR,100.574504,4.219785
ABC1048,SEKOLAH JENIS KEBANGSAAN (CINA) ENG LING,Rendah,SJKC,PERAK,PPD MANJUNG,"LOT 9894, JALAN DESA MANJUNG 2, TAMAN DESA MANJUNG POINT",32200,LUMUT,100.634651,4.235203
ABC1049,SEKOLAH JENIS KEBANGSAAN (CINA) PING MIN,Rendah,SJKC,PERAK,PPD MANJUNG,KG. PUNDUT,32200,LUMUT,100.636514,4.211616
ABC1051,SEKOLAH JENIS KEBANGSAAN (CINA) KUR SENG,Rendah,SJKC,PERAK,PPD MANJUNG,KAMPUNG SITIAWAN,32000,SITIAWAN,100.691954,4.241288
ABC1052,SEKOLAH JENIS KEBANGSAAN (CINA) CHUNG CHENG,Rendah,SJKC,PERAK,PPD MANJUNG,JALAN RAJA OMAR,32000,SITIAWAN,100.698435,4.209865
ABC1053,SEKOLAH JENIS KEBANGSAAN (CINA) UK ING,Rendah,SJKC,PERAK,PPD MANJUNG,KG CINA,32000,SITIAWAN,100.685163,4.193347
ABC1054,SEKOLAH JENIS KEBANGSAAN (CINA) CHINESE NATIONAL,Rendah,SJKC,PERAK,PPD MANJUNG,KG. KOH,32000,SITIAWAN,100.698668,4.195053
ABC1055,SEKOLAH JENIS KEBANGSAAN (CINA) UK DIH,Rendah,SJKC,PERAK,PPD MANJUNG,"JLN LEKIR, KG KOH",32000,SITIAWAN,100.704590,4.187283
ABC1056,SEKOLAH JENIS KEBANGSAAN (CINA) CHIEN HUA,Rendah,SJKC,PERAK,PPD MANJUNG,SIMPANG DUA,32010,SITIAWAN,100.728450,4.202359
ABC1057,SEKOLAH JENIS KEBANGSAAN (CINA) PEKAN GURNEY,Rendah,SJKC,PERAK,PPD MANJUNG,PEKAN GURNEY,32010,SITIAWAN,100.746547,4.224032
ABC1058,SEKOLAH JENIS KEBANGSAAN (CINA) SIMPANG LIMA,Rendah,SJKC,PERAK,PPD MANJUNG,SIMPANG  LIMA,32010,SITIAWAN,100.758922,4.246962
ABC1059,SEKOLAH JENIS KEBANGSAAN (CINA) KOK MING,Rendah,SJKC,PERAK,PPD MANJUNG,KG. BAHARU(L),32400,AYER TAWAR,100.675061,4.293385
ABC1061,SEKOLAH JENIS KEBANGSAAN (CINA) AYER TAWAR,Rendah,SJKC,PERAK,PPD MANJUNG,JALAN AYER TAWAR,32400,AYER TAWAR,100.761376,4.294299
ABC1062,SEKOLAH JENIS KEBANGSAAN (CINA) MIN TE,Rendah,SJKC,PERAK,PPD MANJUNG,JLN SEKOLAH,32400,AYER TAWAR,100.760257,4.300560
ABC1063,SEKOLAH JENIS KEBANGSAAN (CINA) KAMPUNG JERING,Rendah,SJKC,PERAK,PPD MANJUNG,KAMPUNG JERING,32400,AYER TAWAR,100.780062,4.347859
ABC1064,SEKOLAH JENIS KEBANGSAAN (CINA) PEI MIN,Rendah,SJKC,PERAK,PPD MANJUNG,KG RAJA HITAM,32400,AYER TAWAR,100.751431,4.336647
ABC1065,SEKOLAH JENIS KEBANGSAAN (CINA) KAMPONG MERBAU,Rendah,SJKC,PERAK,PPD MANJUNG,JALAN PANTAI REMIS,32400,AYER TAWAR,100.748860,4.337735
ABC1066,SEKOLAH JENIS KEBANGSAAN (CINA) KHUEN HEAN,Rendah,SJKC,PERAK,PPD MANJUNG,CHANGKAT KRUING,32500,CHANGKAT KRUING,100.688947,4.379544
ABC1067,SEKOLAH JENIS KEBANGSAAN (CINA) SUNGAI BATU,Rendah,SJKC,PERAK,PPD MANJUNG,SUNGAI BATU,34900,PANTAI REMIS,100.656050,4.432133
ABC1068,SEKOLAH JENIS KEBANGSAAN (CINA) PEI MIN,Rendah,SJKC,PERAK,PPD MANJUNG,SEGARI,32200,LUMUT,100.625128,4.346470
ABC1069,SEKOLAH JENIS KEBANGSAAN (CINA) TIT BIN,Rendah,SJKC,PERAK,PPD MANJUNG,PANTAI REMIS,34900,PANTAI REMIS,100.630129,4.459840
ABC1070,SEKOLAH JENIS KEBANGSAAN (CINA) PEI CHING,Rendah,SJKC,PERAK,PPD MANJUNG,JALAN BERUAS TAIPING,32700,BERUAS,100.781547,4.499848
ABC1071,SEKOLAH JENIS KEBANGSAAN (CINA) YEN MIN,Rendah,SJKC,PERAK,PPD MANJUNG,JALAN BAGAN PANCHOR,34900,PANTAI REMIS,100.639725,4.527866
ABC2100,SEKOLAH JENIS KEBANGSAAN (CINA) YUK CHOY,Rendah,SJKC,PERAK,PPD KINTA UTARA,"195, JALAN SULTAN ISKANDAR",30000,IPOH,101.088010,4.592705
ABC2101,SEKOLAH JENIS KEBANGSAAN (CINA) PERAK,Rendah,SJKC,PERAK,PPD KINTA UTARA,"87, PEOPLE'S PARK",30000,IPOH,101.078514,4.593031
ABC2102,SEKOLAH JENIS KEBANGSAAN (CINA) SAM TET,Rendah,SJKC,PERAK,PPD KINTA UTARA,"NO.22, JALAN GEREJA",30300,IPOH,101.087476,4.594913
ABC2103,SEKOLAH JENIS KEBANGSAAN (CINA) AVE MARIA CONVENT,Rendah,SJKC,PERAK,PPD KINTA UTARA,JALAN CHUNG THYE PHIN,30250,IPOH,101.088522,4.589618
ABC2104,SEKOLAH JENIS KEBANGSAAN (CINA) YUH HUA,Rendah,SJKC,PERAK,PPD KINTA UTARA,TAMAN  PERTAMA,30100,IPOH,101.053879,4.593769
ABC2105,SEKOLAH JENIS KEBANGSAAN (CINA) POI LAM,Rendah,SJKC,PERAK,PPD KINTA UTARA,"PT21071, BANDAR BARU SRI KLEBANG, JALAN KUALA KANGSAR",31200,CHEMOR,101.117782,4.692179
ABC2106,SEKOLAH JENIS KEBANGSAAN (CINA) MIN TET,Rendah,SJKC,PERAK,PPD KINTA UTARA,JALAN SPOONER FALIM,30200,IPOH,101.062957,4.582996
ABC2107,SEKOLAH JENIS KEBANGSAAN (CINA) CHUNG SHAN,Rendah,SJKC,PERAK,PPD KINTA UTARA,"129, JALAN TREACHER (S)",30000,IPOH,101.077695,4.590849
ABC2108,SEKOLAH JENIS KEBANGSAAN (CINA) SAM CHAI,Rendah,SJKC,PERAK,PPD KINTA UTARA,JALAN SHAH BANDAR,31650,IPOH,101.079777,4.580095
ABC2109,SEKOLAH JENIS KEBANGSAAN (CINA) PASIR PINJI (1),Rendah,SJKC,PERAK,PPD KINTA UTARA,JALAN PADANG,31650,IPOH,101.090103,4.572613
ABC2110,SEKOLAH JENIS KEBANGSAAN (CINA) PASIR PINJI (2),Rendah,SJKC,PERAK,PPD KINTA UTARA,JLN SEKOLAH,31650,IPOH,101.089644,4.571977
ABC2111,SEKOLAH JENIS KEBANGSAAN (CINA) GUNTONG,Rendah,SJKC,PERAK,PPD KINTA UTARA,"JALAN SEKOLAH, KG. BARU BUNTONG",30100,IPOH,101.059891,4.595964
ABC2112,SEKOLAH JENIS KEBANGSAAN (CINA) WAN HWA (1),Rendah,SJKC,PERAK,PPD KINTA UTARA,NO 1 JLN  LEE LOY SENG  MENGLEMBU,31450,MENGLEMBU,101.047264,4.567324
ABC2113,SEKOLAH JENIS KEBANGSAAN (CINA) WAN HWA (2),Rendah,SJKC,PERAK,PPD KINTA UTARA,TAMAN RASI JAYA,31450,MENGLEMBU,101.032029,4.577768
ABC2114,SEKOLAH JENIS KEBANGSAAN (CINA) CHUNG TACK,Rendah,SJKC,PERAK,PPD KINTA UTARA,"LEBUH 2, SIMEE",31400,IPOH,101.106680,4.617304
ABC2115,SEKOLAH JENIS KEBANGSAAN (CINA) BERCHAM,Rendah,SJKC,PERAK,PPD KINTA UTARA,"LORONG 8, BERCHAM",31400,IPOH,101.129044,4.637589
ABC2116,SEKOLAH JENIS KEBANGSAAN (CINA) MIN SIN,Rendah,SJKC,PERAK,PPD KINTA UTARA,AMPANG BARU,31350,IPOH,101.125870,4.586342
ABC2117,SEKOLAH JENIS KEBANGSAAN (CINA) HING HWA,Rendah,SJKC,PERAK,PPD KINTA UTARA,"JALAN AMPANG, TAMBUN",31400,IPOH,101.139797,4.608088
ABC2118,SEKOLAH JENIS KEBANGSAAN (CINA) TAT CHOI,Rendah,SJKC,PERAK,PPD KINTA UTARA,"7, JALAN MAJLIS",31250,TANJONG RAMBUTAN,101.155666,4.671286
ABC2119,SEKOLAH JENIS KEBANGSAAN (CINA) CHANGKAT KINDING,Rendah,SJKC,PERAK,PPD KINTA UTARA,CHANGKAT KINDING,31250,TANJONG RAMBUTAN,101.152200,4.699960
ABC2120,SEKOLAH JENIS KEBANGSAAN (CINA) ST MICHAEL & ALL ANGELS,Rendah,SJKC,PERAK,PPD KINTA UTARA,JALAN ST MICHAEL KG TAWAS,30010,IPOH,101.098538,4.649858
ABC2121,SEKOLAH JENIS KEBANGSAAN (CINA) KAMPUNG TAWAS,Rendah,SJKC,PERAK,PPD KINTA UTARA,"LORONG TAWAS 29, KAMPUNG TAWAS",30010,IPOH,101.097953,4.646859
ABC2122,SEKOLAH JENIS KEBANGSAAN (CINA) PEI CHENG,Rendah,SJKC,PERAK,PPD KINTA UTARA,JALAN NANGKA,31200,CHEMOR,101.117314,4.720159
ABC2123,SEKOLAH JENIS KEBANGSAAN (CINA) KUALA KUANG,Rendah,SJKC,PERAK,PPD KINTA UTARA,KAMPUNG BARU KUALA KUANG,31200,CHEMOR,101.109920,4.711121
ABC2124,SEKOLAH JENIS KEBANGSAAN (CINA) TANAH HITAM,Rendah,SJKC,PERAK,PPD KINTA UTARA,TANAH HITAM,31200,CHEMOR,101.142676,4.726641
ABC2125,SEKOLAH JENIS KEBANGSAAN (CINA) CHONG HWA,Rendah,SJKC,PERAK,PPD KINTA UTARA,KANTHAN BARU,31200,CHEMOR,101.119987,4.742927
ABC2126,SEKOLAH JENIS KEBANGSAAN (CINA) JELAPANG,Rendah,SJKC,PERAK,PPD KINTA UTARA,"JALAN SEKOLAH, JELAPANG",30020,IPOH,101.060493,4.634479
ABC2127,SEKOLAH JENIS KEBANGSAAN (CINA) BUKIT MERAH,Rendah,SJKC,PERAK,PPD KINTA UTARA,BUKIT MERAH,31500,LAHAT,101.040633,4.549127
ABC2128,SEKOLAH JENIS KEBANGSAAN (CINA) LAHAT,Rendah,SJKC,PERAK,PPD KINTA UTARA,LAHAT,31500,LAHAT,101.036406,4.538082
ABC2129,SEKOLAH JENIS KEBANGSAAN (CINA) PAPAN,Rendah,SJKC,PERAK,PPD KINTA UTARA,JALAN BESAR PAPAN,31550,PUSING,101.012056,4.515172
ABC2130,SEKOLAH JENIS KEBANGSAAN (CINA) YIT CHEE,Rendah,SJKC,PERAK,PPD KINTA UTARA,JALAN PANCHOR,31550,PUSING,101.009043,4.496032
ABC2131,SEKOLAH JENIS KEBANGSAAN (CINA) GUNONG HIJAU,Rendah,SJKC,PERAK,PPD KINTA UTARA,GUNUNG HIJAU,31550,PUSING,101.008026,4.493539
ABC2132,SEKOLAH JENIS KEBANGSAAN (CINA) SIPUTEH,Rendah,SJKC,PERAK,PPD KINTA SELATAN,JALAN PARIT,31560,SIPUTEH,100.994886,4.467997
ABC2133,SEKOLAH JENIS KEBANGSAAN (CINA) CHUNG SUN,Rendah,SJKC,PERAK,PPD KINTA SELATAN,LORONG BOTA,31750,TRONOH,100.986473,4.420241
ABC2134,SEKOLAH JENIS KEBANGSAAN (CINA) KAMPUNG BALI,Rendah,SJKC,PERAK,PPD KINTA SELATAN,KAMPUNG BALI,31750,TRONOH,101.004923,4.392598
ABC2135,SEKOLAH JENIS KEBANGSAAN (CINA) KAMPUNG NALLA,Rendah,SJKC,PERAK,PPD KINTA SELATAN,JALAN SEKOLAH,31750,TRONOH,100.979369,4.422496
ABC2136,SEKOLAH JENIS KEBANGSAAN (CINA) YUK KWAN,Rendah,SJKC,PERAK,PPD KINTA SELATAN,"NO.8, JALAN KELAB",31000,BATU GAJAH,101.040545,4.467795
ABC2137,SEKOLAH JENIS KEBANGSAAN (CINA) BEMBAN,Rendah,SJKC,PERAK,PPD KINTA SELATAN,KG BARU BEMBAN,31000,BATU GAJAH,101.013056,4.462136
ABC2138,SEKOLAH JENIS KEBANGSAAN (CINA) THUNG HON,Rendah,SJKC,PERAK,PPD KINTA SELATAN,CHENDRONG,31000,BATU GAJAH,101.048024,4.408418
ABC2139,SEKOLAH JENIS KEBANGSAAN (CINA) THUNG HON,Rendah,SJKC,PERAK,PPD KINTA SELATAN,JALAN BATU GAJAH,31800,TANJUNG TUALANG,101.057088,4.325692
ABC2140,SEKOLAH JENIS KEBANGSAAN (CINA) SUNGAI DURIAN,Rendah,SJKC,PERAK,PPD KINTA SELATAN,"JALAN PASAR BARU, SUNGAI DURIAN",31800,TANJONG TUALANG,101.034138,4.316185
ABC2141,SEKOLAH JENIS KEBANGSAAN (CINA) KAMPONG TIMAH,Rendah,SJKC,PERAK,PPD KINTA SELATAN,JALAN PASAR KAMPUNG TIMAH,31800,TANJONG TUALANG,101.051221,4.284072
ABC2142,SEKOLAH JENIS KEBANGSAAN (CINA) GUNONG RAPAT,Rendah,SJKC,PERAK,PPD KINTA UTARA,PERSIARAN GUNUNG RAPAT 6,31350,IPOH,101.118989,4.573188
ABC2143,SEKOLAH JENIS KEBANGSAAN (CINA) PHUI YING,Rendah,SJKC,PERAK,PPD KINTA UTARA,"SIMPANG PULAI, KG KEPAYANG",31300,KG KEPAYANG,101.128635,4.531399
ABC2158,SEKOLAH JENIS KEBANGSAAN (CINA) BANDAR SERI BOTANI,Rendah,SJKC,PERAK,PPD KINTA UTARA,BANDAR SERI BOTANI,31350,IPOH,101.105959,4.540287
ABC3048,SEKOLAH JENIS KEBANGSAAN (CINA) SIN HWA,Rendah,SJKC,PERAK,PPD KRIAN,JALAN ABD RAOF,34200,PARIT BUNTAR,100.491891,5.126751
ABC3049,SEKOLAH JENIS KEBANGSAAN (CINA) BIN SIN,Rendah,SJKC,PERAK,PPD KRIAN,TITI SERONG,34200,PARIT BUNTAR,100.462474,5.102691
ABC3050,SEKOLAH JENIS KEBANGSAAN (CINA) NAM HUA,Rendah,SJKC,PERAK,PPD KRIAN,JALAN BESAR TANJONG PIANDANG,34250,TANJONG PIANDANG,100.387092,5.076163
ABC3051,SEKOLAH JENIS KEBANGSAAN (CINA) WAI SIN,Rendah,SJKC,PERAK,PPD KRIAN,JALAN BAHRU,34200,PARIT BUNTAR,100.472637,5.066629
ABC3052,SEKOLAH JENIS KEBANGSAAN (CINA) YU CHAI,Rendah,SJKC,PERAK,PPD KRIAN,JALAN PANTAI,34350,KUALA KURAU,100.431420,5.018147
ABC3053,SEKOLAH JENIS KEBANGSAAN (CINA) YUK HWA,Rendah,SJKC,PERAK,PPD KRIAN,KUALA GULA,34350,KUALA KURAU,100.465365,4.930176
ABC3054,SEKOLAH JENIS KEBANGSAAN (CINA) CHONG WAH,Rendah,SJKC,PERAK,PPD KRIAN,SIMPANG EMPAT,34400,SEMANGGOL,100.634738,4.951887
ABC3055,SEKOLAH JENIS KEBANGSAAN (CINA) TONG WAH,Rendah,SJKC,PERAK,PPD KRIAN,PETI SURAT 67,34300,BAGAN SERAI,100.538373,5.009338
ABC3056,SEKOLAH JENIS KEBANGSAAN (CINA) ALOR PONGSU,Rendah,SJKC,PERAK,PPD KRIAN,JALAN SELAMA,34300,BAGAN SERAI,100.586751,5.050225
ABC3058,SEKOLAH JENIS KEBANGSAAN (CINA) AIK HWA,Rendah,SJKC,PERAK,PPD KRIAN,KAMPONG LIANG SENG,34350,KUALA KURAU,100.501960,4.988790
ABC4091,SEKOLAH JENIS KEBANGSAAN (CINA) SAUK,Rendah,SJKC,PERAK,PPD KUALA KANGSAR,SAUK,33500,KUALA KANGSAR,100.921748,4.935040
ABC4092,SEKOLAH JENIS KEBANGSAAN (CINA) LIMAN,Rendah,SJKC,PERAK,PPD KUALA KANGSAR,LIMAN KATI,33020,KUALA KANGSAR,100.903088,4.850167
ABC4093,SEKOLAH JENIS KEBANGSAAN (CINA) KHAI CHEE,Rendah,SJKC,PERAK,PPD KUALA KANGSAR,KATI,33020,KUALA KANGSAR,100.906227,4.874925
ABC4094,SEKOLAH JENIS KEBANGSAAN (CINA) KHIU MIN,Rendah,SJKC,PERAK,PPD KUALA KANGSAR,"JALAN BESAR, PADANG RENGAS",33700,KUALA KANGSAR,100.841547,4.775287
ABC4095,SEKOLAH JENIS KEBANGSAAN (CINA) TSUNG WAH,Rendah,SJKC,PERAK,PPD KUALA KANGSAR,JALAN KANGSAR,33000,KUALA KANGSAR,100.941658,4.769541
ABC4096,SEKOLAH JENIS KEBANGSAAN (CINA) JERLUN,Rendah,SJKC,PERAK,PPD KUALA KANGSAR,KAMPUNG BARU JERLUN,33000,KUALA KANGSAR,100.911831,4.731442
ABC4097,SEKOLAH JENIS KEBANGSAAN (CINA) MANONG,Rendah,SJKC,PERAK,PPD KUALA KANGSAR,JALAN BESAR MANONG,33800,MANONG,100.882241,4.590028
ABC4100,SEKOLAH JENIS KEBANGSAAN (CINA) SEY WAH,Rendah,SJKC,PERAK,PPD KUALA KANGSAR,"NO.70,DEPAN BALAI POLIS",33600,ENGGOR,100.965850,4.835202
ABC4101,SEKOLAH JENIS KEBANGSAAN (CINA) SALAK BAHRU,Rendah,SJKC,PERAK,PPD KUALA KANGSAR,SALAK BAHRU,31050,SALAK UTARA,100.995085,4.842988
ABC4102,SEKOLAH JENIS KEBANGSAAN (CINA) HING WA,Rendah,SJKC,PERAK,PPD KUALA KANGSAR,PEKAN SALAK UTARA,31050,SALAK UTARA,101.009146,4.835582
ABC4103,SEKOLAH JENIS KEBANGSAAN (CINA) SUNGAI BULOH,Rendah,SJKC,PERAK,PPD KUALA KANGSAR,KG.BARU SG.BULOH,31100,SUNGAI SIPUT (U),101.068798,4.818560
ABC4104,SEKOLAH JENIS KEBANGSAAN (CINA) SHING CHUNG,Rendah,SJKC,PERAK,PPD KUALA KANGSAR,BELAKANG PEKAN,31100,SUNGAI SIPUT (U),101.071257,4.822599
ABC4105,SEKOLAH JENIS KEBANGSAAN (CINA) SIMPANG JALONG,Rendah,SJKC,PERAK,PPD KUALA KANGSAR,KAMPUNG BARU SIMPANG JALONG,31100,SG. SIPUT (U),101.089700,4.824414
ABC4106,SEKOLAH JENIS KEBANGSAAN (CINA) LINTANG,Rendah,SJKC,PERAK,PPD KUALA KANGSAR,LOT 3926  KAMPUNG LINTANG,31110,SUNGAI SIPUT (U),101.104801,4.936370
ABC4107,SEKOLAH JENIS KEBANGSAAN (CINA) LASAH,Rendah,SJKC,PERAK,PPD KUALA KANGSAR,LASAH,31110,SUNGAI SIPUT (U),101.120511,4.952821
ABC4108,SEKOLAH JENIS KEBANGSAAN (CINA) RIMBA PANJANG,Rendah,SJKC,PERAK,PPD KUALA KANGSAR,KAMPUNG RIMBA PANJANG,31100,SUNGAI SIPUT (U),101.101423,4.796336
ABC5081,SEKOLAH JENIS KEBANGSAAN (CINA) WAH KEOW,Rendah,SJKC,PERAK,PPD HILIR PERAK,LOT 4987 JALAN CHUI CHAK,36700,LANGKAP,101.153458,4.073042
ABC5082,SEKOLAH JENIS KEBANGSAAN (CINA) PELAWAN,Rendah,SJKC,PERAK,PPD HILIR PERAK,KAMPUNG PELAWAN,36700,LANGKAP,101.186965,4.067969
ABC5083,SEKOLAH JENIS KEBANGSAAN (CINA) BATU DUABELAS,Rendah,SJKC,PERAK,PPD HILIR PERAK,JALAN BIDOR,36020,TELUK INTAN,101.175174,4.003467
ABC5084,SEKOLAH JENIS KEBANGSAAN (CINA) CHUI CHAK,Rendah,SJKC,PERAK,PPD HILIR PERAK,JALAN SUNGAI,36700,LANGKAP,101.170205,4.047425
ABC5085,SEKOLAH JENIS KEBANGSAAN (CINA) SAN MIN 1,Rendah,SJKC,PERAK,PPD HILIR PERAK,JALAN PUTRA,36000,TELUK INTAN,101.017294,4.028293
ABC5086,SEKOLAH JENIS KEBANGSAAN (CINA) SAN MIN 2,Rendah,SJKC,PERAK,PPD HILIR PERAK,JALAN PUTRA,36000,TELUK INTAN,101.017518,4.028163
ABC5087,SEKOLAH JENIS KEBANGSAAN (CINA) PHOOI YONG,Rendah,SJKC,PERAK,PPD HILIR PERAK,NO: 247 JALAN PASIR BEDAMAR,36000,TELUK INTAN,101.008633,4.032287
ABC5088,SEKOLAH JENIS KEBANGSAAN (CINA) CHONG MIN,Rendah,SJKC,PERAK,PPD HILIR PERAK,1997 JALAN PADANG TEMBAK,36000,TELUK INTAN,101.013579,4.001753
ABC5089,SEKOLAH JENIS KEBANGSAAN (CINA) CHUNG HWA,Rendah,SJKC,PERAK,PPD HILIR PERAK,KAMPUNG SUNGAI SULI,36008,TELUK INTAN,101.032563,4.043379
ABC6074,SEKOLAH JENIS KEBANGSAAN (CINA) HUA LIAN (1),Rendah,SJKC,PERAK,PPD LARUT/MATANG/SELAMA,JALAN IZUDDIN SHAH,34000,TAIPING,100.724652,4.853901
ABC6075,SEKOLAH JENIS KEBANGSAAN (CINA) HUA LIAN (2),Rendah,SJKC,PERAK,PPD LARUT/MATANG/SELAMA,"LOT 16747, JALAN PERTAMA 15, TAMAN PERTAMA",34000,TAIPING,100.724643,4.853905
ABC6076,SEKOLAH JENIS KEBANGSAAN (CINA) HUA LIAN (3),Rendah,SJKC,PERAK,PPD LARUT/MATANG/SELAMA,"JLN. CEMPEDAK , KG. JAMBU",34000,TAIPING,100.742543,4.841113
ABC6077,SEKOLAH JENIS KEBANGSAAN (CINA) POKOK ASSAM,Rendah,SJKC,PERAK,PPD LARUT/MATANG/SELAMA,JALAN POKOK ASSAM,34000,TAIPING,100.740131,4.830361
ABC6078,SEKOLAH JENIS KEBANGSAAN (CINA) AULONG,Rendah,SJKC,PERAK,PPD LARUT/MATANG/SELAMA,"LORONG 42, KAMPUNG BARU AULONG",34000,TAIPING,100.712289,4.854791
ABC6079,SEKOLAH JENIS KEBANGSAAN (CINA) PHUI CHOI,Rendah,SJKC,PERAK,PPD LARUT/MATANG/SELAMA,JALAN KAMUNTING LAMA  LORONG KAMUNTING,34600,KAMUNTING,100.734247,4.889190
ABC6080,SEKOLAH JENIS KEBANGSAAN (CINA) SIN MIN,Rendah,SJKC,PERAK,PPD LARUT/MATANG/SELAMA,KAMPUNG SIMPANG MAKMUR,34700,SIMPANG,100.712422,4.818809
ABC6082,SEKOLAH JENIS KEBANGSAAN (CINA) KWONG MAN,Rendah,SJKC,PERAK,PPD LARUT/MATANG/SELAMA,JALAN BESAR,34500,BATU KURAU,100.797183,4.975934
ABC6083,SEKOLAH JENIS KEBANGSAAN (CINA) PHOOI WAH,Rendah,SJKC,PERAK,PPD LARUT/MATANG/SELAMA,"JALAN BESAR, JELAI",34520,BATU KURAU,100.809907,5.012716
ABC6084,SEKOLAH JENIS KEBANGSAAN (CINA) KHEA WAH,Rendah,SJKC,PERAK,PPD LARUT/MATANG/SELAMA,JALAN CINA,34750,MATANG,100.672927,4.820015
ABC6085,SEKOLAH JENIS KEBANGSAAN (CINA) POAY ENG,Rendah,SJKC,PERAK,PPD LARUT/MATANG/SELAMA,JALAN TRUMP,34650,KUALA SEPETANG,100.629273,4.837011
ABC6086,SEKOLAH JENIS KEBANGSAAN (CINA) POAY CHEE,Rendah,SJKC,PERAK,PPD LARUT/MATANG/SELAMA,KUALA SANGGA,34650,KUALA SEPETANG,100.560686,4.853006
ABC6087,SEKOLAH JENIS KEBANGSAAN (CINA) YUK CHUEN,Rendah,SJKC,PERAK,PPD LARUT/MATANG/SELAMA,JALAN KUALA KANGSAR,34850,CHANGKAT JERING,100.719637,4.790372
ABC6088,SEKOLAH JENIS KEBANGSAAN (CINA) SIU SIN,Rendah,SJKC,PERAK,PPD LARUT/MATANG/SELAMA,JALAN BESAR,34800,TRONG,100.718659,4.708185
ABC6089,SEKOLAH JENIS KEBANGSAAN (CINA) NGAI SENG,Rendah,SJKC,PERAK,PPD LARUT/MATANG/SELAMA,AIR TERJUN,34800,TRONG,100.710851,4.642891
ABC6091,SEKOLAH JENIS KEBANGSAAN (CINA) SUNGAI ROTAN,Rendah,SJKC,PERAK,PPD LARUT/MATANG/SELAMA,KAMPUNG SUNGAI ROTAN,34800,TRONG,100.733037,4.555804
ABC6092,SEKOLAH JENIS KEBANGSAAN (CINA) KHAY HWA,Rendah,SJKC,PERAK,PPD LARUT/MATANG/SELAMA,SUNGAI KERANG,34800,TRONG,100.682565,4.596759
ABC6093,SEKOLAH JENIS KEBANGSAAN (CINA) SIN HUA,Rendah,SJKC,PERAK,PPD LARUT/MATANG/SELAMA,TEMERLOH,34800,TRONG,100.694093,4.651910
ABC6094,SEKOLAH JENIS KEBANGSAAN (CINA) AIK HUA,Rendah,SJKC,PERAK,PPD LARUT/MATANG/SELAMA,PASIR HITAM,34000,TAIPING,100.615175,4.646141
ABC6095,SEKOLAH JENIS KEBANGSAAN (CINA) CHI SHENG (1),Rendah,SJKC,PERAK,PPD LARUT/MATANG/SELAMA,109 JALAN BESAR,34100,SELAMA,100.691440,5.219375
ABC6096,SEKOLAH JENIS KEBANGSAAN (CINA) CHI SHENG (2),Rendah,SJKC,PERAK,PPD LARUT/MATANG/SELAMA,RANTAU PANJANG,34140,RANTAU PANJANG,100.731452,5.240623
ABC6097,SEKOLAH JENIS KEBANGSAAN (CINA) REDANG PANJANG,Rendah,SJKC,PERAK,PPD LARUT/MATANG/SELAMA,IJOK,34510,BATU KURAU,100.783110,5.114303
ABC6098,SEKOLAH JENIS KEBANGSAAN (CINA) SUNGAI TERAP,Rendah,SJKC,PERAK,PPD LARUT/MATANG/SELAMA,LORONG 2 SUNGAI TERAP,34100,SELAMA,100.683414,5.205210
ABC7036,SEKOLAH JENIS KEBANGSAAN (CINA) EOK KWAN,Rendah,SJKC,PERAK,PPD HULU PERAK,JALAN TASEK,33100,PENGKALAN HULU,100.998436,5.706103
ABC7037,SEKOLAH JENIS KEBANGSAAN (CINA) KUNG LI,Rendah,SJKC,PERAK,PPD HULU PERAK,KLIAN INTAN,33200,PENGKALAN HULU,101.019826,5.634072
ABC7038,SEKOLAH JENIS KEBANGSAAN (CINA) KG. BAHARU BATU DUA,Rendah,SJKC,PERAK,PPD HULU PERAK,KG. BAHARU BATU DUA,33300,GERIK,101.134705,5.449621
ABC7039,SEKOLAH JENIS KEBANGSAAN (CINA) KUALA RUI,Rendah,SJKC,PERAK,PPD HULU PERAK,KAMPONG BARU KUALA RUI,33300,GERIK,101.173565,5.458753
ABC7040,SEKOLAH JENIS KEBANGSAAN (CINA) CHUNG WA,Rendah,SJKC,PERAK,PPD HULU PERAK,JALAN SEKOLAH CINA,33300,GERIK,101.131383,5.428956
ABC7041,SEKOLAH JENIS KEBANGSAAN (CINA) AYER KALA,Rendah,SJKC,PERAK,PPD HULU PERAK,KG. BARU AYER KALA,33420,LENGGONG,101.055555,5.196287
ABC7042,SEKOLAH JENIS KEBANGSAAN (CINA) SELAT PAGAR,Rendah,SJKC,PERAK,PPD HULU PERAK,KG SELAT PAGAR,33420,LENGGONG,101.036818,5.180065
ABC7043,SEKOLAH JENIS KEBANGSAAN (CINA) PADANG GRUS,Rendah,SJKC,PERAK,PPD HULU PERAK,KG BARU PADANG GRUS,33420,LENGGONG,101.014094,5.163667
ABC7044,SEKOLAH JENIS KEBANGSAAN (CINA) YEONG HWA,Rendah,SJKC,PERAK,PPD HULU PERAK,LORONG PEJABAT PELADANG,33400,LENGGONG,100.969252,5.107401
ABC7045,SEKOLAH JENIS KEBANGSAAN (CINA) KOTA TAMPAN,Rendah,SJKC,PERAK,PPD HULU PERAK,KOTA TAMPAN,33400,LENGGONG,100.966546,5.056036
ABC7046,SEKOLAH JENIS KEBANGSAAN (CINA) KHAY BENG,Rendah,SJKC,PERAK,PPD HULU PERAK,TASEK RABAN,33400,LENGGONG,100.944893,5.002522
ABC8401,SEKOLAH JENIS KEBANGSAAN (CINA) CHUNG HWA,Rendah,SJKC,PERAK,PPD PERAK TENGAH,JALAN BELANJA,32800,PARIT,100.909968,4.478928
ABC9001,SEKOLAH JENIS KEBANGSAAN (CINA) NEW KOPISAN,Rendah,SJKC,PERAK,PPD KINTA SELATAN,"JALAN SEKOLAH, KOPISAN BARU",31600,GOPENG,101.162647,4.461803
ABC9002,SEKOLAH JENIS KEBANGSAAN (CINA) MAN MING,Rendah,SJKC,PERAK,PPD KINTA SELATAN,JALAN TASIK,31600,GOPENG,101.167730,4.476475
ABC9003,SEKOLAH JENIS KEBANGSAAN (CINA) LAWAN KUDA BARU,Rendah,SJKC,PERAK,PPD KINTA SELATAN,"JALAN 4, LAWAN KUDA BARU",31600,GOPENG,101.161777,4.451150
ABC9004,SEKOLAH JENIS KEBANGSAAN (CINA) JERAM,Rendah,SJKC,PERAK,PPD KINTA SELATAN,KG.BARU JERAM,31850,JERAM,101.153122,4.387365
ABC9005,SEKOLAH JENIS KEBANGSAAN (CINA) YING SING,Rendah,SJKC,PERAK,PPD KINTA SELATAN,JALAN BESAR MALIM NAWAR,31700,MALIM NAWAR,101.117766,4.352177
ABC9006,SEKOLAH JENIS KEBANGSAAN (CINA) SIN MIN,Rendah,SJKC,PERAK,PPD KINTA SELATAN,SUNGAI SIPUT SELATAN,31900,KAMPAR,101.193078,4.392539
ABC9007,SEKOLAH JENIS KEBANGSAAN (CINA) PEI YUAN,Rendah,SJKC,PERAK,PPD KINTA SELATAN,NO 9 JLN  DIPANG,31907,KAMPAR,101.154215,4.318857
ABC9008,SEKOLAH JENIS KEBANGSAAN (CINA) MAMBANG DIAWAN,Rendah,SJKC,PERAK,PPD KINTA SELATAN,"JALAN BELIDA, MAMBANG DI AWAN",31950,KAMPAR,101.144763,4.266810
ABC9009,SEKOLAH JENIS KEBANGSAAN (CINA) SIN MIN,Rendah,SJKC,PERAK,PPD KINTA SELATAN,TRONOH MINES,31910,KAMPAR,101.086343,4.272073
ABC9010,SEKOLAH JENIS KEBANGSAAN (CINA) KAMPAR GIRLS,Rendah,SJKC,PERAK,PPD KINTA SELATAN,JALAN AMPANG,31907,KAMPAR,101.154851,4.313785
ABC9011,SEKOLAH JENIS KEBANGSAAN (CINA) CHUNG HUAH,Rendah,SJKC,PERAK,PPD KINTA SELATAN,JALAN BHARU,31907,KAMPAR,101.154967,4.310306
ABC9012,SEKOLAH JENIS KEBANGSAAN (CINA) YU YING,Rendah,SJKC,PERAK,PPD KINTA SELATAN,"JALAN TENGAS, MAMBANG DIAWAN",31950,KAMPAR,101.147196,4.261242
ABCA001,SEKOLAH JENIS KEBANGSAAN (CINA) HO PIN,Rendah,SJKC,PERAK,PPD MUALLIM,"KAMPUNG BARU, SLIM VILLAGE",35800,SLIM RIVER,101.479240,3.850721
ABCA002,SEKOLAH JENIS KEBANGSAAN (CINA) PHIN MIN,Rendah,SJKC,PERAK,PPD MUALLIM,BEHRANG STESEN,35950,BEHRANG STESEN,101.448735,3.743755
ABCA003,SEKOLAH JENIS KEBANGSAAN (CINA) CHIN HUA,Rendah,SJKC,PERAK,PPD MUALLIM,PEKAN SLIM RIVER,35800,SLIM RIVER,101.400364,3.832999
ABCA004,SEKOLAH JENIS KEBANGSAAN (CINA) BEHRANG ULU,Rendah,SJKC,PERAK,PPD MUALLIM,BEHRANG ULU,35910,TANJONG MALIM,101.496792,3.755950
ABCA005,SEKOLAH JENIS KEBANGSAAN (CINA) CHUNG SIN,Rendah,SJKC,PERAK,PPD MUALLIM,"121-122, JLN KETOYONG",35900,TANJONG MALIM,101.520456,3.684052
ABCB001,SEKOLAH JENIS KEBANGSAAN (CINA) YEONG SENG,Rendah,SJKC,PERAK,PPD BAGAN DATUK,"BATU 10, JENDARATA",36400,HUTAN MELINTANG,100.945371,3.913763
ABCB002,SEKOLAH JENIS KEBANGSAAN (CINA) POOI SENG,Rendah,SJKC,PERAK,PPD BAGAN DATUK,BATU 13,36400,HUTAN MELINTANG,100.902336,3.892379
ABCB003,SEKOLAH JENIS KEBANGSAAN (CINA) POOI AING,Rendah,SJKC,PERAK,PPD BAGAN DATUK,PARIT 7,36300,SUNGAI SUMUN,100.853883,3.891486
ABCB004,SEKOLAH JENIS KEBANGSAAN (CINA) KEOW MIN,Rendah,SJKC,PERAK,PPD BAGAN DATUK,JALAN TEPI SUNGAI,36400,HUTAN MELINTANG,100.930778,3.873982
ABCB005,SEKOLAH JENIS KEBANGSAAN (CINA) SIN MIN,Rendah,SJKC,PERAK,PPD BAGAN DATUK,SUNGAI TIANG,36200,SELEKOH,100.713653,3.908755
ABCB006,SEKOLAH JENIS KEBANGSAAN (CINA) CHONG SAN,Rendah,SJKC,PERAK,PPD BAGAN DATUK,SUNGAI BURUNG,36100,BAGAN DATOH,100.708308,3.976254
ABCB007,SEKOLAH JENIS KEBANGSAAN (CINA) HWA NAN,Rendah,SJKC,PERAK,PPD BAGAN DATUK,BATU 23,36200,SELEKOH,100.770513,3.907340
ABCB008,SEKOLAH JENIS KEBANGSAAN (CINA) HUA HSIA,Rendah,SJKC,PERAK,PPD BAGAN DATUK,"JALAN PASAR, BAGAN DATOH",36100,BAGAN DATOH,100.785163,3.989119
ABCB009,SEKOLAH JENIS KEBANGSAAN (CINA) YEE HWA,Rendah,SJKC,PERAK,PPD BAGAN DATUK,SUNGAI BELUKANG,36200,SELEKOH,100.741402,3.865931
ABCB010,SEKOLAH JENIS KEBANGSAAN (CINA) SIMPANG TIGA,Rendah,SJKC,PERAK,PPD BAGAN DATUK,"BATU 24, SIMPANG 3, JALAN BAGAN DATOH",36100,BAGAN DATOH,100.776274,3.932895
ABCB011,SEKOLAH JENIS KEBANGSAAN (CINA) BAGAN PASIR LAUT,Rendah,SJKC,PERAK,PPD BAGAN DATUK,JALAN BARU BAGAN PASIR LAUT,36200,SELEKOH,100.818356,3.860158
ABD0073,SEKOLAH JENIS KEBANGSAAN (TAMIL) TAPAH,Rendah,SJKT,PERAK,PPD BATANG PADANG,JALAN DATO'  PONNUSAMY PILLAI,35000,TAPAH,101.264119,4.194475
ABD0074,SEKOLAH JENIS KEBANGSAAN (TAMIL) KHIR JOHARI,Rendah,SJKT,PERAK,PPD BATANG PADANG,TAPAH ROAD,35400,TAPAH ROAD,101.197991,4.176747
ABD0075,SEKOLAH JENIS KEBANGSAAN (TAMIL) TUN SAMBANTHAN,Rendah,SJKT,PERAK,PPD BATANG PADANG,JALAN SUNGKAI,35500,BIDOR,101.289169,4.107362
ABD0076,SEKOLAH JENIS KEBANGSAAN (TAMIL) BHARATHY,Rendah,SJKT,PERAK,PPD BATANG PADANG,JALAN PASAR,35300,CHENDERIANG,101.237616,4.265590
ABD0077,SEKOLAH JENIS KEBANGSAAN (TAMIL) SUNGKAI,Rendah,SJKT,PERAK,PPD BATANG PADANG,PEKAN SUNGKAI,35600,SUNGKAI,101.309874,3.998189
ABD0081,SEKOLAH JENIS KEBANGSAAN (TAMIL) LADANG TONG WAH,Rendah,SJKT,PERAK,PPD BATANG PADANG,LADANG TONG WAH,35000,TAPAH,101.251088,4.234965
ABD0082,SEKOLAH JENIS KEBANGSAAN (TAMIL) LADANG BIDOR TAHAN,Rendah,SJKT,PERAK,PPD BATANG PADANG,LADANG BIDOR TAHAN,35500,BIDOR,101.284699,4.089749
ABD0083,SEKOLAH JENIS KEBANGSAAN (TAMIL) LADANG BIKAM,Rendah,SJKT,PERAK,PPD BATANG PADANG,PETI SURAT N0.17,35600,SUNGKAI,101.298316,4.047721
ABD0084,SEKOLAH JENIS KEBANGSAAN (TAMIL) LADANG SUNGAI KRUIT,Rendah,SJKT,PERAK,PPD BATANG PADANG,"LOT 4857, LADANG SUNGAI KRUIT",35600,SUNGKAI,101.338778,3.988633
ABD0086,SEKOLAH JENIS KEBANGSAAN (TAMIL) LADANG SUNGKAI,Rendah,SJKT,PERAK,PPD BATANG PADANG,LADANG SUNGKAI,35600,SUNGKAI,101.329935,3.961192
ABD0089,SEKOLAH JENIS KEBANGSAAN (TAMIL) LADANG KELAPA BALI,Rendah,SJKT,PERAK,PPD BATANG PADANG,LADANG KELAPA BALI,35800,SLIM RIVER,101.355516,3.835151
ABD0106,SEKOLAH JENIS KEBANGSAAN (TAMIL) LADANG BANOPDANE,Rendah,SJKT,PERAK,PPD BATANG PADANG,"BATU 4, JALAN TELUK INTAN",35500,BIDOR,101.254860,4.094454
ABD1073,SEKOLAH JENIS KEBANGSAAN (TAMIL) MAHA GANESA VIDDYASALAI,Rendah,SJKT,PERAK,PPD MANJUNG,KAMPUNG SELAMAT,32000,SITIAWAN,100.698039,4.213932
ABD1075,SEKOLAH JENIS KEBANGSAAN (TAMIL) PANGKOR,Rendah,SJKT,PERAK,PPD MANJUNG,JALAN PANGKOR,32300,PANGKOR,100.574911,4.222181
ABD1077,SEKOLAH JENIS KEBANGSAAN (TAMIL) PENGKALAN BARU,Rendah,SJKT,PERAK,PPD MANJUNG,PENGKALAN BARU,34900,PANTAI REMIS,100.642050,4.480955
ABD1078,SEKOLAH JENIS KEBANGSAAN (TAMIL) LADANG HUNTLY,Rendah,SJKT,PERAK,PPD MANJUNG,LADANG HUNTLY,34900,PANTAI REMIS,100.697790,4.431421
ABD1079,SEKOLAH JENIS KEBANGSAAN (TAMIL) LADANG SOGOMANA,Rendah,SJKT,PERAK,PPD MANJUNG,LADANG SOGOMANA,32500,CHANGKAT KRUING,100.694866,4.390451
ABD1082,SEKOLAH JENIS KEBANGSAAN (TAMIL) LADANG AYER TAWAR,Rendah,SJKT,PERAK,PPD MANJUNG,LADANG AYER TAWAR,32400,AYER TAWAR,100.711640,4.303120
ABD1083,SEKOLAH JENIS KEBANGSAAN (TAMIL) KAMPONG TUN SAMBANTHAN,Rendah,SJKT,PERAK,PPD MANJUNG,JALAN LADANG ULU AYER TAWAR,32400,AYER TAWAR,100.703631,4.336969
ABD1084,SEKOLAH JENIS KEBANGSAAN (TAMIL) LADANG CASHWOOD,Rendah,SJKT,PERAK,PPD MANJUNG,LADANG CASHWOOD,32400,AYER TAWAR,100.688590,4.321599
ABD1085,SEKOLAH JENIS KEBANGSAAN (TAMIL) KAMPUNG COLUMBIA,Rendah,SJKT,PERAK,PPD MANJUNG,JALAN KAMPUNG COLUMBIA,32400,AYER TAWAR,100.731247,4.274371
ABD1086,SEKOLAH JENIS KEBANGSAAN (TAMIL) LADANG WALBROOK,Rendah,SJKT,PERAK,PPD MANJUNG,LADANG WALBROOK,32000,SITIAWAN,100.718800,4.258100
ABD1087,SEKOLAH JENIS KEBANGSAAN (TAMIL) LADANG SG WANGI II,Rendah,SJKT,PERAK,PPD MANJUNG,JALAN BERUAS,32000,SITIAWAN,100.712710,4.239254
ABD1089,SEKOLAH JENIS KEBANGSAAN (TAMIL) MUKIM PUNDUT,Rendah,SJKT,PERAK,PPD MANJUNG,KOMPLEKS SEKOLAH WAWASAN MANJUNG,32200,LUMUT,100.652485,4.199468
ABD1091,SEKOLAH JENIS KEBANGSAAN (TAMIL) KAMPUNG KAYAN,Rendah,SJKT,PERAK,PPD MANJUNG,KAMPUNG KAYAN,32030,SITIAWAN,100.798046,4.044961
ABD1092,SEKOLAH JENIS KEBANGSAAN (TAMIL) AYER TAWAR,Rendah,SJKT,PERAK,PPD MANJUNG,JALAN BESAR AYER TAWAR,32400,AYER TAWAR,100.754835,4.294859
ABD1093,SEKOLAH JENIS KEBANGSAAN (TAMIL) BERUAS,Rendah,SJKT,PERAK,PPD MANJUNG,JALAN BERUAS,32700,BERUAS,100.766940,4.503277
ABD2158,SEKOLAH JENIS KEBANGSAAN (TAMIL) TANJONG RAMBUTAN,Rendah,SJKT,PERAK,PPD KINTA UTARA,JALAN STESYEN,31250,TANJONG RAMBUTAN,101.156760,4.671155
ABD2159,SEKOLAH JENIS KEBANGSAAN (TAMIL) KERAJAAN,Rendah,SJKT,PERAK,PPD KINTA UTARA,JALAN SUNGAI PARI,30200,IPOH,101.067570,4.592387
ABD2160,SEKOLAH JENIS KEBANGSAAN (TAMIL) ST PHILOMENA CONVENT,Rendah,SJKT,PERAK,PPD KINTA UTARA,"NO 45B, JALAN SILIBIN",30100,IPOH,101.069338,4.602306
ABD2161,SEKOLAH JENIS KEBANGSAAN (TAMIL) PERAK SANGEETHA SABAH,Rendah,SJKT,PERAK,PPD KINTA UTARA,JALAN TUN ABDUL RAZAK,30100,IPOH,101.070860,4.597420
ABD2163,SEKOLAH JENIS KEBANGSAAN (TAMIL) METHODIST,Rendah,SJKT,PERAK,PPD KINTA UTARA,"JALAN MADRAS, BUNTONG",30100,IPOH,101.060910,4.590871
ABD2164,SEKOLAH JENIS KEBANGSAAN (TAMIL) CHETTIARS,Rendah,SJKT,PERAK,PPD KINTA UTARA,"JLN LAHAT ,IPOH",30200,IPOH,101.073296,4.589650
ABD2166,SEKOLAH JENIS KEBANGSAAN (TAMIL) KG.SIMEE,Rendah,SJKT,PERAK,PPD KINTA UTARA,KAMPUNG SIMEE,31400,IPOH,101.113046,4.617455
ABD2167,SEKOLAH JENIS KEBANGSAAN (TAMIL) GUNONG RAPAT,Rendah,SJKT,PERAK,PPD KINTA UTARA,"MAIN ROAD, GUNUNG RAPAT",31350,IPOH,101.118710,4.573000
ABD2168,SEKOLAH JENIS KEBANGSAAN (TAMIL) MENGLEMBU,Rendah,SJKT,PERAK,PPD KINTA UTARA,JALAN TRANCHELL,31450,MENGLEMBU,101.043810,4.563892
ABD2169,SEKOLAH JENIS KEBANGSAAN (TAMIL) CHANGKAT,Rendah,SJKT,PERAK,PPD KINTA SELATAN,JALAN CHANGKAT,31000,BATU GAJAH,101.034913,4.475618
ABD2170,SEKOLAH JENIS KEBANGSAAN (TAMIL) TRONOH,Rendah,SJKT,PERAK,PPD KINTA SELATAN,JALAN BOTA,31750,TRONOH,100.987551,4.418053
ABD2173,SEKOLAH JENIS KEBANGSAAN (TAMIL) LADANG CHEMOR,Rendah,SJKT,PERAK,PPD KINTA UTARA,LADANG CHEMOR,31200,CHEMOR,101.129390,4.738150
ABD2174,SEKOLAH JENIS KEBANGSAAN (TAMIL) LADANG CHANGKAT KINDING,Rendah,SJKT,PERAK,PPD KINTA UTARA,LADANG CHANGKAT KINDING,31250,TANJUNG RAMBUTAN,101.148830,4.705740
ABD2175,SEKOLAH JENIS KEBANGSAAN (TAMIL) KLEBANG,Rendah,SJKT,PERAK,PPD KINTA UTARA,"JALAN KUALA KANGSAR, IPOH",31200,CHEMOR,101.120108,4.683972
ABD2176,SEKOLAH JENIS KEBANGSAAN (TAMIL) LADANG STRATHISLA,Rendah,SJKT,PERAK,PPD KINTA UTARA,"HALA CHEPOR 16, TAMAN CHEPOR RAYA",31200,CHEMOR,101.092196,4.692734
ABD2178,SEKOLAH JENIS KEBANGSAAN (TAMIL) LADANG KINTA VALLEY,Rendah,SJKT,PERAK,PPD KINTA SELATAN,JALAN TANJUNG TUALANG,31007,BATU GAJAH,101.046004,4.400682
ABD2189,SEKOLAH JENIS KEBANGSAAN (TAMIL) TAMAN DESA PINJI,Rendah,SJKT,PERAK,PPD KINTA UTARA,LAHAT,31500,LAHAT,101.091694,4.513602
ABD3057,SEKOLAH JENIS KEBANGSAAN (TAMIL) LADANG SELINSING,Rendah,SJKT,PERAK,PPD KRIAN,SIMPANG AMPAT,34400,SEMANGGOL,100.659485,4.907806
ABD3058,SEKOLAH JENIS KEBANGSAAN (TAMIL) LADANG YAM SENG,Rendah,SJKT,PERAK,PPD KRIAN,BATU 8 JALAN KERIAN,34400,SEMANGGOL,100.700123,4.941571
